{
"type": "FeatureCollection",
"name": "village",
"crs": { "type": "name", "properties": { "name": "urn:ogc:def:crs:OGC:1.3:CRS84" } },
"features": [
{ "type": "Feature", "properties": { "OBJECTID": 1, "ID": "51182720720200", "NAME": "曹家村委会" }, "geometry": { "type": "Point", "coordinates": [ 102.789184541000054, 30.160325991000036 ] } },
{ "type": "Feature", "properties": { "OBJECTID": 2, "ID": "51182521320300", "NAME": "王家营村委会" }, "geometry": { "type": "Point", "coordinates": [ 102.829330416000062, 30.128414178000071 ] } },
{ "type": "Feature", "properties": { "OBJECTID": 3, "ID": "51182521620100", "NAME": "上坝村委会" }, "geometry": { "type": "Point", "coordinates": [ 102.881271353000045, 30.101638803000071 ] } },
{ "type": "Feature", "properties": { "OBJECTID": 4, "ID": "51182521320300", "NAME": "王家营村委会" }, "geometry": { "type": "Point", "coordinates": [ 102.874114979000069, 30.094236366000075 ] } },
{ "type": "Feature", "properties": { "OBJECTID": 5, "ID": "51182510020500", "NAME": "下冷村委会" }, "geometry": { "type": "Point", "coordinates": [ 102.75254822800008, 30.054767616000049 ] } },
{ "type": "Feature", "properties": { "OBJECTID": 6, "ID": "51180210320300", "NAME": "穆家村委会" }, "geometry": { "type": "Point", "coordinates": [ 103.066886916000044, 30.009382241000026 ] } },
{ "type": "Feature", "properties": { "OBJECTID": 7, "ID": "51180210420400", "NAME": "葫芦村委会" }, "geometry": { "type": "Point", "coordinates": [ 102.949363728000037, 29.961547866000046 ] } },
{ "type": "Feature", "properties": { "OBJECTID": 8, "ID": "51180220320400", "NAME": "金花村委会" }, "geometry": { "type": "Point", "coordinates": [ 102.901161166000065, 29.929658866000068 ] } },
{ "type": "Feature", "properties": { "OBJECTID": 9, "ID": "51182521920200", "NAME": "和平村委会" }, "geometry": { "type": "Point", "coordinates": [ 102.772285478000072, 29.886424991000069 ] } },
{ "type": "Feature", "properties": { "OBJECTID": 10, "ID": "51182220820100", "NAME": "紫炉村村委会" }, "geometry": { "type": "Point", "coordinates": [ 102.655899041000055, 29.850072866000062 ] } },
{ "type": "Feature", "properties": { "OBJECTID": 11, "ID": "51182220520100", "NAME": "金鱼村村委会" }, "geometry": { "type": "Point", "coordinates": [ 102.750808729000084, 29.842060116000027 ] } },
{ "type": "Feature", "properties": { "OBJECTID": 12, "ID": "51182221720500", "NAME": "安林村民委员会" }, "geometry": { "type": "Point", "coordinates": [ 102.831855791000066, 29.830396678000056 ] } },
{ "type": "Feature", "properties": { "OBJECTID": 13, "ID": "51182210120400", "NAME": "光和村村委会" }, "geometry": { "type": "Point", "coordinates": [ 102.742042541000046, 29.802768678000064 ] } },
{ "type": "Feature", "properties": { "OBJECTID": 14, "ID": "51182321820500", "NAME": "联合村村委会" }, "geometry": { "type": "Point", "coordinates": [ 102.754631041000039, 29.342895490000046 ] } },
{ "type": "Feature", "properties": { "OBJECTID": 15, "ID": "51182310820100", "NAME": "海子村村委会" }, "geometry": { "type": "Point", "coordinates": [ 102.693519603000084, 29.339813240000069 ] } },
{ "type": "Feature", "properties": { "OBJECTID": 16, "ID": "51182310620800", "NAME": "摆鱼村村委会" }, "geometry": { "type": "Point", "coordinates": [ 102.629325853000068, 29.314857490000065 ] } },
{ "type": "Feature", "properties": { "OBJECTID": 17, "ID": "51182323120300", "NAME": "南山村村委会" }, "geometry": { "type": "Point", "coordinates": [ 102.832664478000083, 29.260475177000046 ] } },
{ "type": "Feature", "properties": { "OBJECTID": 18, "ID": "51182400100300", "NAME": "岩子居委会" }, "geometry": { "type": "Point", "coordinates": [ 102.369010916000036, 29.247503302000041 ] } },
{ "type": "Feature", "properties": { "OBJECTID": 19, "ID": "51182400120800", "NAME": "广元湾村民委员会" }, "geometry": { "type": "Point", "coordinates": [ 102.367042540000057, 29.224489240000025 ] } },
{ "type": "Feature", "properties": { "OBJECTID": 20, "ID": "51182410020300", "NAME": "顺河村村委会" }, "geometry": { "type": "Point", "coordinates": [ 102.375457791000088, 29.206178677000025 ] } },
{ "type": "Feature", "properties": { "OBJECTID": 21, "ID": "51182720220300", "NAME": "泽根村委会" }, "geometry": { "type": "Point", "coordinates": [ 102.751266478000048, 30.725433366000061 ] } },
{ "type": "Feature", "properties": { "OBJECTID": 22, "ID": "51182720220100", "NAME": "咎落村委会" }, "geometry": { "type": "Point", "coordinates": [ 102.744033791000049, 30.700120929000036 ] } },
{ "type": "Feature", "properties": { "OBJECTID": 23, "ID": "51182720220000", "NAME": "夹拉村委会" }, "geometry": { "type": "Point", "coordinates": [ 102.756835916000057, 30.663169866000032 ] } },
{ "type": "Feature", "properties": { "OBJECTID": 24, "ID": "51182720320200", "NAME": "中岗村委会" }, "geometry": { "type": "Point", "coordinates": [ 102.596481353000058, 30.609313991000079 ] } },
{ "type": "Feature", "properties": { "OBJECTID": 25, "ID": "51182720320100", "NAME": "永和村委会" }, "geometry": { "type": "Point", "coordinates": [ 102.648216228000081, 30.552776366000046 ] } },
{ "type": "Feature", "properties": { "OBJECTID": 26, "ID": "51182720820300", "NAME": "和平村委会" }, "geometry": { "type": "Point", "coordinates": [ 102.944107041000052, 30.551908491000063 ] } },
{ "type": "Feature", "properties": { "OBJECTID": 27, "ID": "51182720820100", "NAME": "顺山村委会" }, "geometry": { "type": "Point", "coordinates": [ 102.910125728000082, 30.543813678000049 ] } },
{ "type": "Feature", "properties": { "OBJECTID": 28, "ID": "51182720820000", "NAME": "盐井坪村委会" }, "geometry": { "type": "Point", "coordinates": [ 102.91033935300004, 30.53609467800004 ] } },
{ "type": "Feature", "properties": { "OBJECTID": 29, "ID": "51182720820200", "NAME": "青坪村委会" }, "geometry": { "type": "Point", "coordinates": [ 102.930564853000078, 30.531146991000071 ] } },
{ "type": "Feature", "properties": { "OBJECTID": 30, "ID": "51182720320000", "NAME": "若笔村委会" }, "geometry": { "type": "Point", "coordinates": [ 102.682991041000037, 30.52709386600003 ] } },
{ "type": "Feature", "properties": { "OBJECTID": 31, "ID": "51182720820000", "NAME": "新华村委会" }, "geometry": { "type": "Point", "coordinates": [ 102.903999354000064, 30.504493741000033 ] } },
{ "type": "Feature", "properties": { "OBJECTID": 32, "ID": "51182710220500", "NAME": "自兴村委会" }, "geometry": { "type": "Point", "coordinates": [ 102.705909728000051, 30.504173303000073 ] } },
{ "type": "Feature", "properties": { "OBJECTID": 33, "ID": "51182610420100", "NAME": "杨开村委会" }, "geometry": { "type": "Point", "coordinates": [ 103.075454729000057, 30.495077116000061 ] } },
{ "type": "Feature", "properties": { "OBJECTID": 34, "ID": "51182710220400", "NAME": "向兴村委会" }, "geometry": { "type": "Point", "coordinates": [ 102.712501540000062, 30.490705491000028 ] } },
{ "type": "Feature", "properties": { "OBJECTID": 35, "ID": "51182720820200", "NAME": "新康村委会" }, "geometry": { "type": "Point", "coordinates": [ 102.872848541000053, 30.490150428000049 ] } },
{ "type": "Feature", "properties": { "OBJECTID": 36, "ID": "51182710220000", "NAME": "老场村委会" }, "geometry": { "type": "Point", "coordinates": [ 102.707962041000087, 30.483947741000065 ] } },
{ "type": "Feature", "properties": { "OBJECTID": 37, "ID": "51182720820300", "NAME": "民和村委会" }, "geometry": { "type": "Point", "coordinates": [ 102.86587522800005, 30.481798178000076 ] } },
{ "type": "Feature", "properties": { "OBJECTID": 38, "ID": "51182720820100", "NAME": "光明村委会" }, "geometry": { "type": "Point", "coordinates": [ 102.885185228000068, 30.478845616000058 ] } },
{ "type": "Feature", "properties": { "OBJECTID": 39, "ID": "51182710020500", "NAME": "新民村委会" }, "geometry": { "type": "Point", "coordinates": [ 102.843414291000045, 30.465166116000034 ] } },
{ "type": "Feature", "properties": { "OBJECTID": 40, "ID": "51182710220700", "NAME": "新江村委会" }, "geometry": { "type": "Point", "coordinates": [ 102.675483728000074, 30.462255491000064 ] } },
{ "type": "Feature", "properties": { "OBJECTID": 41, "ID": "51182710220300", "NAME": "星火村委会" }, "geometry": { "type": "Point", "coordinates": [ 102.721641541000054, 30.455316553000046 ] } },
{ "type": "Feature", "properties": { "OBJECTID": 42, "ID": "51182710220200", "NAME": "青江村委会" }, "geometry": { "type": "Point", "coordinates": [ 102.710212728000045, 30.455152491000035 ] } },
{ "type": "Feature", "properties": { "OBJECTID": 43, "ID": "51182710220800", "NAME": "崇兴村委会" }, "geometry": { "type": "Point", "coordinates": [ 102.667518604000065, 30.446838366000065 ] } },
{ "type": "Feature", "properties": { "OBJECTID": 44, "ID": "51182720520200", "NAME": "东升村委会" }, "geometry": { "type": "Point", "coordinates": [ 102.792213416000038, 30.432983428000057 ] } },
{ "type": "Feature", "properties": { "OBJECTID": 45, "ID": "51182710220100", "NAME": "苏村村委会" }, "geometry": { "type": "Point", "coordinates": [ 102.731391916000064, 30.428791053000054 ] } },
{ "type": "Feature", "properties": { "OBJECTID": 46, "ID": "51182720520300", "NAME": "团结村委会" }, "geometry": { "type": "Point", "coordinates": [ 102.755485541000041, 30.411529554000026 ] } },
{ "type": "Feature", "properties": { "OBJECTID": 47, "ID": "51182710020300", "NAME": "顺江村委会" }, "geometry": { "type": "Point", "coordinates": [ 102.829956041000059, 30.407974241000034 ] } },
{ "type": "Feature", "properties": { "OBJECTID": 48, "ID": "51182720520100", "NAME": "战斗村委会" }, "geometry": { "type": "Point", "coordinates": [ 102.789260853000087, 30.407756803000041 ] } },
{ "type": "Feature", "properties": { "OBJECTID": 49, "ID": "51182720520000", "NAME": "东风村委会" }, "geometry": { "type": "Point", "coordinates": [ 102.76669310300008, 30.406803115000059 ] } },
{ "type": "Feature", "properties": { "OBJECTID": 50, "ID": "51182720520400", "NAME": "胜利村委会" }, "geometry": { "type": "Point", "coordinates": [ 102.759559603000071, 30.392290116000027 ] } },
{ "type": "Feature", "properties": { "OBJECTID": 51, "ID": "51182720420100", "NAME": "庄子村委会" }, "geometry": { "type": "Point", "coordinates": [ 102.712486291000062, 30.386186616000032 ] } },
{ "type": "Feature", "properties": { "OBJECTID": 52, "ID": "51082222420300", "NAME": "岩埝村民委员会" }, "geometry": { "type": "Point", "coordinates": [ 103.077224729000079, 30.373126991000049 ] } },
{ "type": "Feature", "properties": { "OBJECTID": 53, "ID": "51182710020000", "NAME": "新宝村委会" }, "geometry": { "type": "Point", "coordinates": [ 102.810874916000046, 30.37127111500007 ] } },
{ "type": "Feature", "properties": { "OBJECTID": 54, "ID": "51182610320500", "NAME": "大河村委会" }, "geometry": { "type": "Point", "coordinates": [ 102.945892353000033, 30.368190741000035 ] } },
{ "type": "Feature", "properties": { "OBJECTID": 55, "ID": "51182710020200", "NAME": "雪山村委会" }, "geometry": { "type": "Point", "coordinates": [ 102.803070041000069, 30.363094303000025 ] } },
{ "type": "Feature", "properties": { "OBJECTID": 56, "ID": "51182720420200", "NAME": "联合村委会" }, "geometry": { "type": "Point", "coordinates": [ 102.676879854000049, 30.352144241000076 ] } },
{ "type": "Feature", "properties": { "OBJECTID": 57, "ID": "51182710020100", "NAME": "新光村委会" }, "geometry": { "type": "Point", "coordinates": [ 102.785125728000082, 30.338951116000032 ] } },
{ "type": "Feature", "properties": { "OBJECTID": 58, "ID": "51182610320300", "NAME": "胜利村委会" }, "geometry": { "type": "Point", "coordinates": [ 102.992126479000035, 30.336889240000062 ] } },
{ "type": "Feature", "properties": { "OBJECTID": 59, "ID": "51182620820200", "NAME": "中坝村委会" }, "geometry": { "type": "Point", "coordinates": [ 103.05604554100006, 30.334548928000061 ] } },
{ "type": "Feature", "properties": { "OBJECTID": 60, "ID": "51182610320000", "NAME": "春光村委会" }, "geometry": { "type": "Point", "coordinates": [ 102.985343916000033, 30.314697240000044 ] } },
{ "type": "Feature", "properties": { "OBJECTID": 61, "ID": "51182710120500", "NAME": "紫云村委会" }, "geometry": { "type": "Point", "coordinates": [ 102.868972791000033, 30.313941929000066 ] } },
{ "type": "Feature", "properties": { "OBJECTID": 62, "ID": "51182620820100", "NAME": "凤头村委会" }, "geometry": { "type": "Point", "coordinates": [ 103.030891416000088, 30.311922053000046 ] } },
{ "type": "Feature", "properties": { "OBJECTID": 63, "ID": "51182710120300", "NAME": "建联村委会" }, "geometry": { "type": "Point", "coordinates": [ 102.817237853000051, 30.302047741000024 ] } },
{ "type": "Feature", "properties": { "OBJECTID": 64, "ID": "51182620820000", "NAME": "玉溪村委会" }, "geometry": { "type": "Point", "coordinates": [ 103.042037978000053, 30.292095178000068 ] } },
{ "type": "Feature", "properties": { "OBJECTID": 65, "ID": "51182710120400", "NAME": "安坪村委会" }, "geometry": { "type": "Point", "coordinates": [ 102.830497728000068, 30.29120636600004 ] } },
{ "type": "Feature", "properties": { "OBJECTID": 66, "ID": "51182710120200", "NAME": "后山村委会" }, "geometry": { "type": "Point", "coordinates": [ 102.81779479100004, 30.285245865000036 ] } },
{ "type": "Feature", "properties": { "OBJECTID": 67, "ID": "51182710120100", "NAME": "上坝村委会" }, "geometry": { "type": "Point", "coordinates": [ 102.804847729000073, 30.282648116000075 ] } },
{ "type": "Feature", "properties": { "OBJECTID": 68, "ID": "51182610220300", "NAME": "西川村委会" }, "geometry": { "type": "Point", "coordinates": [ 102.891822791000038, 30.281221366000068 ] } },
{ "type": "Feature", "properties": { "OBJECTID": 69, "ID": "51182610220100", "NAME": "围塔村委会" }, "geometry": { "type": "Point", "coordinates": [ 102.97049710400006, 30.280097990000058 ] } },
{ "type": "Feature", "properties": { "OBJECTID": 70, "ID": "51182710120200", "NAME": "河口村委会" }, "geometry": { "type": "Point", "coordinates": [ 102.80947879100006, 30.272109991000036 ] } },
{ "type": "Feature", "properties": { "OBJECTID": 71, "ID": "51182710120000", "NAME": "中坝村委会" }, "geometry": { "type": "Point", "coordinates": [ 102.819633479000061, 30.270381928000063 ] } },
{ "type": "Feature", "properties": { "OBJECTID": 72, "ID": "51180320420200", "NAME": "廖场村村委会" }, "geometry": { "type": "Point", "coordinates": [ 103.292442291000043, 30.262235615000066 ] } },
{ "type": "Feature", "properties": { "OBJECTID": 73, "ID": "51182610220000", "NAME": "双河村委会" }, "geometry": { "type": "Point", "coordinates": [ 102.921516416000088, 30.258441928000025 ] } },
{ "type": "Feature", "properties": { "OBJECTID": 74, "ID": "51180320420000", "NAME": "万坝村村委会" }, "geometry": { "type": "Point", "coordinates": [ 103.276344291000044, 30.258216865000065 ] } },
{ "type": "Feature", "properties": { "OBJECTID": 75, "ID": "51182710120100", "NAME": "大沟村委会" }, "geometry": { "type": "Point", "coordinates": [ 102.785377478000044, 30.254157991000056 ] } },
{ "type": "Feature", "properties": { "OBJECTID": 76, "ID": "51182620320000", "NAME": "青龙村委会" }, "geometry": { "type": "Point", "coordinates": [ 103.014785791000065, 30.253927240000053 ] } },
{ "type": "Feature", "properties": { "OBJECTID": 77, "ID": "51182710120300", "NAME": "新场村委会" }, "geometry": { "type": "Point", "coordinates": [ 102.818275478000032, 30.253900553000051 ] } },
{ "type": "Feature", "properties": { "OBJECTID": 78, "ID": "51182710120000", "NAME": "钟灵村委会" }, "geometry": { "type": "Point", "coordinates": [ 102.826293916000054, 30.251829178000037 ] } },
{ "type": "Feature", "properties": { "OBJECTID": 79, "ID": "51180320420400", "NAME": "新场村村委会" }, "geometry": { "type": "Point", "coordinates": [ 103.243133541000077, 30.243375803000049 ] } },
{ "type": "Feature", "properties": { "OBJECTID": 80, "ID": "51180310720300", "NAME": "王山村村委会" }, "geometry": { "type": "Point", "coordinates": [ 103.310882541000069, 30.242464053000049 ] } },
{ "type": "Feature", "properties": { "OBJECTID": 81, "ID": "51180320220900", "NAME": "秦场村村委会" }, "geometry": { "type": "Point", "coordinates": [ 103.186332728000082, 30.235891365000043 ] } },
{ "type": "Feature", "properties": { "OBJECTID": 82, "ID": "51180320220800", "NAME": "河口村村委会" }, "geometry": { "type": "Point", "coordinates": [ 103.198051479000071, 30.234724054000026 ] } },
{ "type": "Feature", "properties": { "OBJECTID": 83, "ID": "51180320420500", "NAME": "桂芳村村委会" }, "geometry": { "type": "Point", "coordinates": [ 103.264801041000055, 30.234428428000058 ] } },
{ "type": "Feature", "properties": { "OBJECTID": 84, "ID": "51182620320100", "NAME": "上里村村委会" }, "geometry": { "type": "Point", "coordinates": [ 102.975570666000067, 30.233907678000037 ] } },
{ "type": "Feature", "properties": { "OBJECTID": 85, "ID": "51180320420100", "NAME": "藕塘村村委会" }, "geometry": { "type": "Point", "coordinates": [ 103.273338292000062, 30.233104679000064 ] } },
{ "type": "Feature", "properties": { "OBJECTID": 86, "ID": "51182720720100", "NAME": "烟溪口村委会" }, "geometry": { "type": "Point", "coordinates": [ 102.815734853000038, 30.231681804000061 ] } },
{ "type": "Feature", "properties": { "OBJECTID": 87, "ID": "51180321020200", "NAME": "临溪村村委会" }, "geometry": { "type": "Point", "coordinates": [ 103.350807166000038, 30.231470116000025 ] } },
{ "type": "Feature", "properties": { "OBJECTID": 88, "ID": "51180310720200", "NAME": "莲花村村委会" }, "geometry": { "type": "Point", "coordinates": [ 103.300384542000074, 30.230281803000025 ] } },
{ "type": "Feature", "properties": { "OBJECTID": 89, "ID": "51182710121500", "NAME": "磨刀溪村民委员会" }, "geometry": { "type": "Point", "coordinates": [ 102.845405603000074, 30.227870928000073 ] } },
{ "type": "Feature", "properties": { "OBJECTID": 90, "ID": "51180321020100", "NAME": "白鹤村村委会" }, "geometry": { "type": "Point", "coordinates": [ 103.329597479000086, 30.227138491000062 ] } },
{ "type": "Feature", "properties": { "OBJECTID": 91, "ID": "51180320400100", "NAME": "观音场社区居委会" }, "geometry": { "type": "Point", "coordinates": [ 103.243156416000033, 30.226224928000079 ] } },
{ "type": "Feature", "properties": { "OBJECTID": 92, "ID": "51180321020000", "NAME": "茅河村村委会" }, "geometry": { "type": "Point", "coordinates": [ 103.341728229000068, 30.224237428000038 ] } },
{ "type": "Feature", "properties": { "OBJECTID": 93, "ID": "51182620920300", "NAME": "同盟村委会" }, "geometry": { "type": "Point", "coordinates": [ 102.955551166000078, 30.222230928000045 ] } },
{ "type": "Feature", "properties": { "OBJECTID": 94, "ID": "51182620320400", "NAME": "隆兴村委会" }, "geometry": { "type": "Point", "coordinates": [ 102.98374941600008, 30.222139365000032 ] } },
{ "type": "Feature", "properties": { "OBJECTID": 95, "ID": "51180321020300", "NAME": "龙兴村村委会" }, "geometry": { "type": "Point", "coordinates": [ 103.363670354000078, 30.222019178000039 ] } },
{ "type": "Feature", "properties": { "OBJECTID": 96, "ID": "51180320220600", "NAME": "下坝村村委会" }, "geometry": { "type": "Point", "coordinates": [ 103.169410729000049, 30.220693615000073 ] } },
{ "type": "Feature", "properties": { "OBJECTID": 97, "ID": "51180310720100", "NAME": "鹤林村村委会" }, "geometry": { "type": "Point", "coordinates": [ 103.276016229000049, 30.21757124100003 ] } },
{ "type": "Feature", "properties": { "OBJECTID": 98, "ID": "51180320220700", "NAME": "甘溪村村委会" }, "geometry": { "type": "Point", "coordinates": [ 103.192955041000062, 30.214395553000031 ] } },
{ "type": "Feature", "properties": { "OBJECTID": 99, "ID": "51180320221000", "NAME": "朱场村村委会" }, "geometry": { "type": "Point", "coordinates": [ 103.165817291000053, 30.213396053000054 ] } },
{ "type": "Feature", "properties": { "OBJECTID": 100, "ID": "51180310120200", "NAME": "石栗村村委会" }, "geometry": { "type": "Point", "coordinates": [ 103.248100292000061, 30.211946491000049 ] } },
{ "type": "Feature", "properties": { "OBJECTID": 101, "ID": "51182620920000", "NAME": "仁加村委会" }, "geometry": { "type": "Point", "coordinates": [ 102.937950104000038, 30.210273741000037 ] } },
{ "type": "Feature", "properties": { "OBJECTID": 102, "ID": "51180310720000", "NAME": "黑竹关村村委会" }, "geometry": { "type": "Point", "coordinates": [ 103.301582354000061, 30.209665303000065 ] } },
{ "type": "Feature", "properties": { "OBJECTID": 103, "ID": "51182620320300", "NAME": "红星村委会" }, "geometry": { "type": "Point", "coordinates": [ 102.97009279100007, 30.209133178000059 ] } },
{ "type": "Feature", "properties": { "OBJECTID": 104, "ID": "51180210720700", "NAME": "箭杆林村委会" }, "geometry": { "type": "Point", "coordinates": [ 103.035438541000076, 30.206037491000075 ] } },
{ "type": "Feature", "properties": { "OBJECTID": 105, "ID": "51180310121200", "NAME": "蔡坪村村委会" }, "geometry": { "type": "Point", "coordinates": [ 103.263931291000063, 30.204036741000039 ] } },
{ "type": "Feature", "properties": { "OBJECTID": 106, "ID": "51180310720500", "NAME": "冯山村村委会" }, "geometry": { "type": "Point", "coordinates": [ 103.305259729000056, 30.203189866000059 ] } },
{ "type": "Feature", "properties": { "OBJECTID": 107, "ID": "51180320220300", "NAME": "四包村村委会" }, "geometry": { "type": "Point", "coordinates": [ 103.15796660400008, 30.202932365000038 ] } },
{ "type": "Feature", "properties": { "OBJECTID": 108, "ID": "51180321020500", "NAME": "万山村村委会" }, "geometry": { "type": "Point", "coordinates": [ 103.326316853000037, 30.201759365000044 ] } },
{ "type": "Feature", "properties": { "OBJECTID": 109, "ID": "51180320221100", "NAME": "海棠村村委会" }, "geometry": { "type": "Point", "coordinates": [ 103.20290372900007, 30.201414116000024 ] } },
{ "type": "Feature", "properties": { "OBJECTID": 110, "ID": "51180310121100", "NAME": "鞍山村村委会" }, "geometry": { "type": "Point", "coordinates": [ 103.242454541000086, 30.201082241000051 ] } },
{ "type": "Feature", "properties": { "OBJECTID": 111, "ID": "51180320220400", "NAME": "一颗印村村委会" }, "geometry": { "type": "Point", "coordinates": [ 103.222404479000033, 30.201024991000054 ] } },
{ "type": "Feature", "properties": { "OBJECTID": 112, "ID": "51180321020400", "NAME": "香水村村委会" }, "geometry": { "type": "Point", "coordinates": [ 103.354690541000082, 30.200817116000053 ] } },
{ "type": "Feature", "properties": { "OBJECTID": 113, "ID": "51182720720300", "NAME": "大溪垴村委会" }, "geometry": { "type": "Point", "coordinates": [ 102.780067416000065, 30.199943553000026 ] } },
{ "type": "Feature", "properties": { "OBJECTID": 114, "ID": "51180310120400", "NAME": "王家村村委会" }, "geometry": { "type": "Point", "coordinates": [ 103.277687104000051, 30.196996678000062 ] } },
{ "type": "Feature", "properties": { "OBJECTID": 115, "ID": "51180210720800", "NAME": "白马村委会" }, "geometry": { "type": "Point", "coordinates": [ 103.095352166000055, 30.194484740000064 ] } },
{ "type": "Feature", "properties": { "OBJECTID": 116, "ID": "51180310120100", "NAME": "朱坝村村委会" }, "geometry": { "type": "Point", "coordinates": [ 103.250991791000047, 30.193838116000052 ] } },
{ "type": "Feature", "properties": { "OBJECTID": 117, "ID": "51182620920400", "NAME": "横溪村委会" }, "geometry": { "type": "Point", "coordinates": [ 102.929298416000051, 30.193466178000051 ] } },
{ "type": "Feature", "properties": { "OBJECTID": 118, "ID": "51180310120300", "NAME": "曹公村村委会" }, "geometry": { "type": "Point", "coordinates": [ 103.268669103000036, 30.191923116000055 ] } },
{ "type": "Feature", "properties": { "OBJECTID": 119, "ID": "51182620320100", "NAME": "王家村委会" }, "geometry": { "type": "Point", "coordinates": [ 102.957839979000084, 30.190175990000057 ] } },
{ "type": "Feature", "properties": { "OBJECTID": 120, "ID": "51182620920100", "NAME": "大同村委会" }, "geometry": { "type": "Point", "coordinates": [ 102.921272291000037, 30.190141678000032 ] } },
{ "type": "Feature", "properties": { "OBJECTID": 121, "ID": "51081210420400", "NAME": "高车村村民委员会" }, "geometry": { "type": "Point", "coordinates": [ 102.949676541000088, 30.189887991000035 ] } },
{ "type": "Feature", "properties": { "OBJECTID": 122, "ID": "51180320820500", "NAME": "安吉村村委会" }, "geometry": { "type": "Point", "coordinates": [ 103.147308353000085, 30.189207054000065 ] } },
{ "type": "Feature", "properties": { "OBJECTID": 123, "ID": "51180310120000", "NAME": "千尺村村委会" }, "geometry": { "type": "Point", "coordinates": [ 103.25134279100007, 30.188533803000041 ] } },
{ "type": "Feature", "properties": { "OBJECTID": 124, "ID": "51180310120500", "NAME": "叶山村村委会" }, "geometry": { "type": "Point", "coordinates": [ 103.312118541000075, 30.187747928000078 ] } },
{ "type": "Feature", "properties": { "OBJECTID": 125, "ID": "51180320220200", "NAME": "桂花村村委会" }, "geometry": { "type": "Point", "coordinates": [ 103.20679472900008, 30.187454241000069 ] } },
{ "type": "Feature", "properties": { "OBJECTID": 126, "ID": "51180310120600", "NAME": "肖坪村村委会" }, "geometry": { "type": "Point", "coordinates": [ 103.295150729000056, 30.186542491000068 ] } },
{ "type": "Feature", "properties": { "OBJECTID": 127, "ID": "51180320320600", "NAME": "续元村村委会" }, "geometry": { "type": "Point", "coordinates": [ 103.346496604000038, 30.185781491000057 ] } },
{ "type": "Feature", "properties": { "OBJECTID": 128, "ID": "51180210520300", "NAME": "四岗村委会" }, "geometry": { "type": "Point", "coordinates": [ 103.161811854000064, 30.184749616000033 ] } },
{ "type": "Feature", "properties": { "OBJECTID": 129, "ID": "51180310121000", "NAME": "凉江村村委会" }, "geometry": { "type": "Point", "coordinates": [ 103.236274729000058, 30.184679053000025 ] } },
{ "type": "Feature", "properties": { "OBJECTID": 130, "ID": "51180310120800", "NAME": "百家村村委会" }, "geometry": { "type": "Point", "coordinates": [ 103.261878979000073, 30.183708178000074 ] } },
{ "type": "Feature", "properties": { "OBJECTID": 131, "ID": "51180210720000", "NAME": "五家村委会" }, "geometry": { "type": "Point", "coordinates": [ 103.071708666000063, 30.183486928000036 ] } },
{ "type": "Feature", "properties": { "OBJECTID": 132, "ID": "51180210720600", "NAME": "治安村委会" }, "geometry": { "type": "Point", "coordinates": [ 103.062408416000039, 30.183410615000071 ] } },
{ "type": "Feature", "properties": { "OBJECTID": 133, "ID": "51180320320700", "NAME": "凉水村村委会" }, "geometry": { "type": "Point", "coordinates": [ 103.326591479000058, 30.182411178000052 ] } },
{ "type": "Feature", "properties": { "OBJECTID": 134, "ID": "51182620920200", "NAME": "芦溪村委会" }, "geometry": { "type": "Point", "coordinates": [ 102.91029360400006, 30.182130803000064 ] } },
{ "type": "Feature", "properties": { "OBJECTID": 135, "ID": "51182620920500", "NAME": "大板村委会" }, "geometry": { "type": "Point", "coordinates": [ 102.924545291000072, 30.181701678000024 ] } },
{ "type": "Feature", "properties": { "OBJECTID": 136, "ID": "51180320220100", "NAME": "大冲村村委会" }, "geometry": { "type": "Point", "coordinates": [ 103.191406229000052, 30.179906866000067 ] } },
{ "type": "Feature", "properties": { "OBJECTID": 137, "ID": "51182720720200", "NAME": "曹家村委会" }, "geometry": { "type": "Point", "coordinates": [ 102.793174728000054, 30.179784803000075 ] } },
{ "type": "Feature", "properties": { "OBJECTID": 138, "ID": "51180210720500", "NAME": "共和村委会" }, "geometry": { "type": "Point", "coordinates": [ 103.054199229000062, 30.178783428000031 ] } },
{ "type": "Feature", "properties": { "OBJECTID": 139, "ID": "51180320820400", "NAME": "飞水村村委会" }, "geometry": { "type": "Point", "coordinates": [ 103.138473541000053, 30.176956178000069 ] } },
{ "type": "Feature", "properties": { "OBJECTID": 140, "ID": "51180310120900", "NAME": "天宫村村委会" }, "geometry": { "type": "Point", "coordinates": [ 103.271163916000035, 30.175292990000059 ] } },
{ "type": "Feature", "properties": { "OBJECTID": 141, "ID": "51180210720100", "NAME": "四家村委会" }, "geometry": { "type": "Point", "coordinates": [ 103.071731541000077, 30.174816116000045 ] } },
{ "type": "Feature", "properties": { "OBJECTID": 142, "ID": "51180310520300", "NAME": "安桥村村委会" }, "geometry": { "type": "Point", "coordinates": [ 103.211509728000067, 30.172546365000073 ] } },
{ "type": "Feature", "properties": { "OBJECTID": 143, "ID": "51180320520600", "NAME": "沙河村村委会" }, "geometry": { "type": "Point", "coordinates": [ 103.161064167000063, 30.170934678000037 ] } },
{ "type": "Feature", "properties": { "OBJECTID": 144, "ID": "51180320520700", "NAME": "高河村村委会" }, "geometry": { "type": "Point", "coordinates": [ 103.151344291000044, 30.170343428000024 ] } },
{ "type": "Feature", "properties": { "OBJECTID": 145, "ID": "51182620320200", "NAME": "五星村委会" }, "geometry": { "type": "Point", "coordinates": [ 102.937927229000081, 30.167596803000038 ] } },
{ "type": "Feature", "properties": { "OBJECTID": 146, "ID": "51180320320800", "NAME": "藕花村村委会" }, "geometry": { "type": "Point", "coordinates": [ 103.323944104000077, 30.167150491000029 ] } },
{ "type": "Feature", "properties": { "OBJECTID": 147, "ID": "51180320220500", "NAME": "三江村村委会" }, "geometry": { "type": "Point", "coordinates": [ 103.183326729000044, 30.166912053000033 ] } },
{ "type": "Feature", "properties": { "OBJECTID": 148, "ID": "51180210720300", "NAME": "七家村委会" }, "geometry": { "type": "Point", "coordinates": [ 103.031082166000033, 30.166488678000064 ] } },
{ "type": "Feature", "properties": { "OBJECTID": 149, "ID": "51180320820300", "NAME": "横山村村委会" }, "geometry": { "type": "Point", "coordinates": [ 103.118934603000071, 30.165693303000069 ] } },
{ "type": "Feature", "properties": { "OBJECTID": 150, "ID": "51180310820700", "NAME": "华光村村委会" }, "geometry": { "type": "Point", "coordinates": [ 103.305580166000084, 30.165552116000072 ] } },
{ "type": "Feature", "properties": { "OBJECTID": 151, "ID": "51180320920400", "NAME": "高岗村村委会" }, "geometry": { "type": "Point", "coordinates": [ 103.243965167000056, 30.165046678000067 ] } },
{ "type": "Feature", "properties": { "OBJECTID": 152, "ID": "51180320320500", "NAME": "孙道村村委会" }, "geometry": { "type": "Point", "coordinates": [ 103.351249667000047, 30.164995178000026 ] } },
{ "type": "Feature", "properties": { "OBJECTID": 153, "ID": "51180320920500", "NAME": "瓦子村村委会" }, "geometry": { "type": "Point", "coordinates": [ 103.228034979000086, 30.16329386600006 ] } },
{ "type": "Feature", "properties": { "OBJECTID": 154, "ID": "51180310520200", "NAME": "新坝村村委会" }, "geometry": { "type": "Point", "coordinates": [ 103.200378417000081, 30.162036865000061 ] } },
{ "type": "Feature", "properties": { "OBJECTID": 155, "ID": "51180210720200", "NAME": "六家村委会" }, "geometry": { "type": "Point", "coordinates": [ 103.072181729000079, 30.160245866000025 ] } },
{ "type": "Feature", "properties": { "OBJECTID": 156, "ID": "51180210620100", "NAME": "复兴村委会" }, "geometry": { "type": "Point", "coordinates": [ 103.047355666000044, 30.159831990000043 ] } },
{ "type": "Feature", "properties": { "OBJECTID": 157, "ID": "51180310820600", "NAME": "天王村村委会" }, "geometry": { "type": "Point", "coordinates": [ 103.304458604000047, 30.159757616000036 ] } },
{ "type": "Feature", "properties": { "OBJECTID": 158, "ID": "51182610000600", "NAME": "金花居委会" }, "geometry": { "type": "Point", "coordinates": [ 102.933845541000039, 30.158344241000066 ] } },
{ "type": "Feature", "properties": { "OBJECTID": 159, "ID": "51180320320000", "NAME": "合江村村委会" }, "geometry": { "type": "Point", "coordinates": [ 103.342094416000066, 30.157396303000041 ] } },
{ "type": "Feature", "properties": { "OBJECTID": 160, "ID": "51180320920200", "NAME": "银木村村委会" }, "geometry": { "type": "Point", "coordinates": [ 103.261833167000077, 30.157270428000061 ] } },
{ "type": "Feature", "properties": { "OBJECTID": 161, "ID": "51180320920300", "NAME": "文昌村村委会" }, "geometry": { "type": "Point", "coordinates": [ 103.219146729000045, 30.156854616000032 ] } },
{ "type": "Feature", "properties": { "OBJECTID": 162, "ID": "51182610020100", "NAME": "火炬村委会" }, "geometry": { "type": "Point", "coordinates": [ 102.956634541000085, 30.156227115000036 ] } },
{ "type": "Feature", "properties": { "OBJECTID": 163, "ID": "51180310820100", "NAME": "余坝村村委会" }, "geometry": { "type": "Point", "coordinates": [ 103.283508291000032, 30.156139366000048 ] } },
{ "type": "Feature", "properties": { "OBJECTID": 164, "ID": "51180320820200", "NAME": "安乐村村委会" }, "geometry": { "type": "Point", "coordinates": [ 103.11037447800004, 30.155090303000065 ] } },
{ "type": "Feature", "properties": { "OBJECTID": 165, "ID": "51172210820000", "NAME": "红草村村委会" }, "geometry": { "type": "Point", "coordinates": [ 103.129127479000033, 30.155086491000077 ] } },
{ "type": "Feature", "properties": { "OBJECTID": 166, "ID": "51182521320800", "NAME": "禾林村委会" }, "geometry": { "type": "Point", "coordinates": [ 102.865310666000084, 30.155000679000068 ] } },
{ "type": "Feature", "properties": { "OBJECTID": 167, "ID": "51182620420300", "NAME": "周村村委会" }, "geometry": { "type": "Point", "coordinates": [ 102.903678916000047, 30.15377042800003 ] } },
{ "type": "Feature", "properties": { "OBJECTID": 168, "ID": "51180310520100", "NAME": "石桥村村委会" }, "geometry": { "type": "Point", "coordinates": [ 103.177810666000084, 30.153339365000079 ] } },
{ "type": "Feature", "properties": { "OBJECTID": 169, "ID": "51180320320100", "NAME": "土墩村村委会" }, "geometry": { "type": "Point", "coordinates": [ 103.316848729000071, 30.153028490000054 ] } },
{ "type": "Feature", "properties": { "OBJECTID": 170, "ID": "51182521320300", "NAME": "大庙村委会" }, "geometry": { "type": "Point", "coordinates": [ 102.77796935300006, 30.152397178000058 ] } },
{ "type": "Feature", "properties": { "OBJECTID": 171, "ID": "51180310520700", "NAME": "长春村村委会" }, "geometry": { "type": "Point", "coordinates": [ 103.196189854000067, 30.151969928000028 ] } },
{ "type": "Feature", "properties": { "OBJECTID": 172, "ID": "51182520220400", "NAME": "龙门村委会" }, "geometry": { "type": "Point", "coordinates": [ 102.710891728000036, 30.151926053000068 ] } },
{ "type": "Feature", "properties": { "OBJECTID": 173, "ID": "51180320520500", "NAME": "高山坡村村委会" }, "geometry": { "type": "Point", "coordinates": [ 103.152732853000032, 30.151458741000056 ] } },
{ "type": "Feature", "properties": { "OBJECTID": 174, "ID": "51182620420200", "NAME": "铜头村委会" }, "geometry": { "type": "Point", "coordinates": [ 102.884750354000062, 30.150764490000029 ] } },
{ "type": "Feature", "properties": { "OBJECTID": 175, "ID": "51182521320700", "NAME": "香林村委会" }, "geometry": { "type": "Point", "coordinates": [ 102.852928166000083, 30.150066366000033 ] } },
{ "type": "Feature", "properties": { "OBJECTID": 176, "ID": "51180320320400", "NAME": "紫萝村村委会" }, "geometry": { "type": "Point", "coordinates": [ 103.35677335400004, 30.149400740000033 ] } },
{ "type": "Feature", "properties": { "OBJECTID": 177, "ID": "51180310520400", "NAME": "大坪村村委会" }, "geometry": { "type": "Point", "coordinates": [ 103.208854666000036, 30.147499116000063 ] } },
{ "type": "Feature", "properties": { "OBJECTID": 178, "ID": "51180320920100", "NAME": "月岗村村委会" }, "geometry": { "type": "Point", "coordinates": [ 103.243782041000088, 30.147062303000041 ] } },
{ "type": "Feature", "properties": { "OBJECTID": 179, "ID": "51180320820100", "NAME": "止观村村委会" }, "geometry": { "type": "Point", "coordinates": [ 103.102104166000061, 30.144739178000066 ] } },
{ "type": "Feature", "properties": { "OBJECTID": 180, "ID": "51180310520000", "NAME": "三星村村委会" }, "geometry": { "type": "Point", "coordinates": [ 103.179359416000068, 30.14464186500004 ] } },
{ "type": "Feature", "properties": { "OBJECTID": 181, "ID": "51180310520800", "NAME": "新星村村委会" }, "geometry": { "type": "Point", "coordinates": [ 103.187103291000085, 30.14315986500003 ] } },
{ "type": "Feature", "properties": { "OBJECTID": 182, "ID": "51180320320300", "NAME": "万安村村委会" }, "geometry": { "type": "Point", "coordinates": [ 103.346542354000064, 30.143156053000041 ] } },
{ "type": "Feature", "properties": { "OBJECTID": 183, "ID": "51180210620000", "NAME": "龙泉村委会" }, "geometry": { "type": "Point", "coordinates": [ 103.05796816600008, 30.142410303000077 ] } },
{ "type": "Feature", "properties": { "OBJECTID": 184, "ID": "51182521320600", "NAME": "共和村委会" }, "geometry": { "type": "Point", "coordinates": [ 102.845520041000043, 30.142044053000063 ] } },
{ "type": "Feature", "properties": { "OBJECTID": 185, "ID": "51180310520500", "NAME": "阳坪村村委会" }, "geometry": { "type": "Point", "coordinates": [ 103.199127166000039, 30.141567241000075 ] } },
{ "type": "Feature", "properties": { "OBJECTID": 186, "ID": "51180320320200", "NAME": "九龙村村委会" }, "geometry": { "type": "Point", "coordinates": [ 103.33527372900005, 30.141248678000068 ] } },
{ "type": "Feature", "properties": { "OBJECTID": 187, "ID": "51180210620200", "NAME": "建强村委会" }, "geometry": { "type": "Point", "coordinates": [ 103.041908292000073, 30.140821428000038 ] } },
{ "type": "Feature", "properties": { "OBJECTID": 188, "ID": "51182521320200", "NAME": "六城村委会" }, "geometry": { "type": "Point", "coordinates": [ 102.813697791000038, 30.140346553000029 ] } },
{ "type": "Feature", "properties": { "OBJECTID": 189, "ID": "51180210620400", "NAME": "建新村委会" }, "geometry": { "type": "Point", "coordinates": [ 103.018104541000071, 30.139867803000072 ] } },
{ "type": "Feature", "properties": { "OBJECTID": 190, "ID": "51180320820000", "NAME": "见阳村村委会" }, "geometry": { "type": "Point", "coordinates": [ 103.101402291000056, 30.137083053000026 ] } },
{ "type": "Feature", "properties": { "OBJECTID": 191, "ID": "51180320520400", "NAME": "钟滩村村委会" }, "geometry": { "type": "Point", "coordinates": [ 103.140663166000081, 30.136671053000043 ] } },
{ "type": "Feature", "properties": { "OBJECTID": 192, "ID": "51182521320400", "NAME": "红岩村委会" }, "geometry": { "type": "Point", "coordinates": [ 102.819389353000076, 30.136106491000078 ] } },
{ "type": "Feature", "properties": { "OBJECTID": 193, "ID": "51180310820500", "NAME": "龚店村村委会" }, "geometry": { "type": "Point", "coordinates": [ 103.299133291000032, 30.135681178000027 ] } },
{ "type": "Feature", "properties": { "OBJECTID": 194, "ID": "51180310420200", "NAME": "江坝村村委会" }, "geometry": { "type": "Point", "coordinates": [ 103.357429479000075, 30.134189615000025 ] } },
{ "type": "Feature", "properties": { "OBJECTID": 195, "ID": "51182521320000", "NAME": "老场村委会" }, "geometry": { "type": "Point", "coordinates": [ 102.823303228000043, 30.133979803000045 ] } },
{ "type": "Feature", "properties": { "OBJECTID": 196, "ID": "51180320920000", "NAME": "吴岗村村委会" }, "geometry": { "type": "Point", "coordinates": [ 103.258415229000036, 30.133214928000029 ] } },
{ "type": "Feature", "properties": { "OBJECTID": 197, "ID": "51182620420100", "NAME": "草坪村委会" }, "geometry": { "type": "Point", "coordinates": [ 102.903961166000045, 30.132301303000077 ] } },
{ "type": "Feature", "properties": { "OBJECTID": 198, "ID": "51180310421000", "NAME": "新桥村村委会" }, "geometry": { "type": "Point", "coordinates": [ 103.330139166000038, 30.132171616000051 ] } },
{ "type": "Feature", "properties": { "OBJECTID": 199, "ID": "51180210620500", "NAME": "张沟村委会" }, "geometry": { "type": "Point", "coordinates": [ 103.033706666000057, 30.132120115000077 ] } },
{ "type": "Feature", "properties": { "OBJECTID": 200, "ID": "51182520220300", "NAME": "关家村委会" }, "geometry": { "type": "Point", "coordinates": [ 102.72866822800006, 30.131713866000041 ] } },
{ "type": "Feature", "properties": { "OBJECTID": 201, "ID": "51182521320500", "NAME": "小落村委会" }, "geometry": { "type": "Point", "coordinates": [ 102.833999603000052, 30.131080616000077 ] } },
{ "type": "Feature", "properties": { "OBJECTID": 202, "ID": "51180310520900", "NAME": "古城村村委会" }, "geometry": { "type": "Point", "coordinates": [ 103.184364291000065, 30.130306240000039 ] } },
{ "type": "Feature", "properties": { "OBJECTID": 203, "ID": "51180210620600", "NAME": "中里村委会" }, "geometry": { "type": "Point", "coordinates": [ 103.049690229000078, 30.129671116000054 ] } },
{ "type": "Feature", "properties": { "OBJECTID": 204, "ID": "51180211120100", "NAME": "七老村委会" }, "geometry": { "type": "Point", "coordinates": [ 103.002593979000039, 30.129444115000069 ] } },
{ "type": "Feature", "properties": { "OBJECTID": 205, "ID": "51180310520600", "NAME": "白马村村委会" }, "geometry": { "type": "Point", "coordinates": [ 103.217468291000046, 30.128986366000049 ] } },
{ "type": "Feature", "properties": { "OBJECTID": 206, "ID": "51180320520200", "NAME": "莫家村村委会" }, "geometry": { "type": "Point", "coordinates": [ 103.117248541000038, 30.126455303000057 ] } },
{ "type": "Feature", "properties": { "OBJECTID": 207, "ID": "51180310820300", "NAME": "白墙村村委会" }, "geometry": { "type": "Point", "coordinates": [ 103.27452085300007, 30.125705740000058 ] } },
{ "type": "Feature", "properties": { "OBJECTID": 208, "ID": "51180310420000", "NAME": "中岭村村委会" }, "geometry": { "type": "Point", "coordinates": [ 103.341293354000072, 30.125465365000025 ] } },
{ "type": "Feature", "properties": { "OBJECTID": 209, "ID": "51182521220300", "NAME": "岩峰村委会" }, "geometry": { "type": "Point", "coordinates": [ 102.800247166000077, 30.125211740000054 ] } },
{ "type": "Feature", "properties": { "OBJECTID": 210, "ID": "51182610020000", "NAME": "黎明村委会" }, "geometry": { "type": "Point", "coordinates": [ 102.939521791000061, 30.124340053000026 ] } },
{ "type": "Feature", "properties": { "OBJECTID": 211, "ID": "51182520220200", "NAME": "曙光村委会" }, "geometry": { "type": "Point", "coordinates": [ 102.731910729000049, 30.123880366000037 ] } },
{ "type": "Feature", "properties": { "OBJECTID": 212, "ID": "51180310420900", "NAME": "兰坝村村委会" }, "geometry": { "type": "Point", "coordinates": [ 103.320121792000066, 30.12361336500004 ] } },
{ "type": "Feature", "properties": { "OBJECTID": 213, "ID": "51180310521100", "NAME": "红光村村委会" }, "geometry": { "type": "Point", "coordinates": [ 103.166435229000058, 30.123565678000034 ] } },
{ "type": "Feature", "properties": { "OBJECTID": 214, "ID": "51180310521000", "NAME": "新安村村委会" }, "geometry": { "type": "Point", "coordinates": [ 103.177963229000056, 30.123178491000033 ] } },
{ "type": "Feature", "properties": { "OBJECTID": 215, "ID": "51182521620100", "NAME": "上坝村委会" }, "geometry": { "type": "Point", "coordinates": [ 102.819457979000049, 30.122104616000058 ] } },
{ "type": "Feature", "properties": { "OBJECTID": 216, "ID": "51180310420100", "NAME": "山娇村村委会" }, "geometry": { "type": "Point", "coordinates": [ 103.355957041000067, 30.121955865000075 ] } },
{ "type": "Feature", "properties": { "OBJECTID": 217, "ID": "51180310521200", "NAME": "山河村村委会" }, "geometry": { "type": "Point", "coordinates": [ 103.205329916000039, 30.117889428000069 ] } },
{ "type": "Feature", "properties": { "OBJECTID": 218, "ID": "51180320020700", "NAME": "双田村村委会" }, "geometry": { "type": "Point", "coordinates": [ 103.159240729000032, 30.117549865000058 ] } },
{ "type": "Feature", "properties": { "OBJECTID": 219, "ID": "51180310420500", "NAME": "余沟村村委会" }, "geometry": { "type": "Point", "coordinates": [ 103.344291666000061, 30.117275240000026 ] } },
{ "type": "Feature", "properties": { "OBJECTID": 220, "ID": "51182521620200", "NAME": "新华村委会" }, "geometry": { "type": "Point", "coordinates": [ 102.880401604000042, 30.116798428000038 ] } },
{ "type": "Feature", "properties": { "OBJECTID": 221, "ID": "51182521220000", "NAME": "永兴村委会" }, "geometry": { "type": "Point", "coordinates": [ 102.807327291000036, 30.116744991000076 ] } },
{ "type": "Feature", "properties": { "OBJECTID": 222, "ID": "51180210220200", "NAME": "柏树村委会" }, "geometry": { "type": "Point", "coordinates": [ 103.014701854000066, 30.116361615000073 ] } },
{ "type": "Feature", "properties": { "OBJECTID": 223, "ID": "51180320020200", "NAME": "官田村村委会" }, "geometry": { "type": "Point", "coordinates": [ 103.09548185400007, 30.115972490000047 ] } },
{ "type": "Feature", "properties": { "OBJECTID": 224, "ID": "51180310420800", "NAME": "邓坪村村委会" }, "geometry": { "type": "Point", "coordinates": [ 103.322372416000064, 30.115564365000068 ] } },
{ "type": "Feature", "properties": { "OBJECTID": 225, "ID": "51182520220000", "NAME": "秋丰村委会" }, "geometry": { "type": "Point", "coordinates": [ 102.73571779100007, 30.115451803000042 ] } },
{ "type": "Feature", "properties": { "OBJECTID": 226, "ID": "51180310820400", "NAME": "上马村村委会" }, "geometry": { "type": "Point", "coordinates": [ 103.292114229000049, 30.115432741000063 ] } },
{ "type": "Feature", "properties": { "OBJECTID": 227, "ID": "51180310420300", "NAME": "石门村村委会" }, "geometry": { "type": "Point", "coordinates": [ 103.35562135400005, 30.114267366000036 ] } },
{ "type": "Feature", "properties": { "OBJECTID": 228, "ID": "51180310221300", "NAME": "桥路村村委会" }, "geometry": { "type": "Point", "coordinates": [ 103.22007754200007, 30.113742803000036 ] } },
{ "type": "Feature", "properties": { "OBJECTID": 229, "ID": "51182521220400", "NAME": "溪口村委会" }, "geometry": { "type": "Point", "coordinates": [ 102.800483729000064, 30.110486991000073 ] } },
{ "type": "Feature", "properties": { "OBJECTID": 230, "ID": "51180320020100", "NAME": "余光村村委会" }, "geometry": { "type": "Point", "coordinates": [ 103.107803354000055, 30.110162740000078 ] } },
{ "type": "Feature", "properties": { "OBJECTID": 231, "ID": "51180320020600", "NAME": "双溪村村委会" }, "geometry": { "type": "Point", "coordinates": [ 103.130271917000073, 30.110031116000073 ] } },
{ "type": "Feature", "properties": { "OBJECTID": 232, "ID": "51182521620100", "NAME": "落改村委会" }, "geometry": { "type": "Point", "coordinates": [ 102.891632104000053, 30.109714490000044 ] } },
{ "type": "Feature", "properties": { "OBJECTID": 233, "ID": "51180320020500", "NAME": "长坪村村委会" }, "geometry": { "type": "Point", "coordinates": [ 103.148696916000063, 30.109546678000072 ] } },
{ "type": "Feature", "properties": { "OBJECTID": 234, "ID": "51182521220200", "NAME": "石桥村委会" }, "geometry": { "type": "Point", "coordinates": [ 102.82164004100008, 30.109327303000043 ] } },
{ "type": "Feature", "properties": { "OBJECTID": 235, "ID": "51180310220200", "NAME": "天池村村委会" }, "geometry": { "type": "Point", "coordinates": [ 103.22122954200006, 30.108842866000032 ] } },
{ "type": "Feature", "properties": { "OBJECTID": 236, "ID": "51180320720200", "NAME": "金鼓村村委会" }, "geometry": { "type": "Point", "coordinates": [ 103.249542229000042, 30.108592991000023 ] } },
{ "type": "Feature", "properties": { "OBJECTID": 237, "ID": "51182510020500", "NAME": "下冷村委会" }, "geometry": { "type": "Point", "coordinates": [ 102.85531616600008, 30.108531928000048 ] } },
{ "type": "Feature", "properties": { "OBJECTID": 238, "ID": "51180310521400", "NAME": "大同村村委会" }, "geometry": { "type": "Point", "coordinates": [ 103.174652103000085, 30.107660303000046 ] } },
{ "type": "Feature", "properties": { "OBJECTID": 239, "ID": "51180320020300", "NAME": "徐沟村村委会" }, "geometry": { "type": "Point", "coordinates": [ 103.069808978000083, 30.107217803000026 ] } },
{ "type": "Feature", "properties": { "OBJECTID": 240, "ID": "51180211120400", "NAME": "名扬村委会" }, "geometry": { "type": "Point", "coordinates": [ 102.99549866600006, 30.106718053000066 ] } },
{ "type": "Feature", "properties": { "OBJECTID": 241, "ID": "51182521620300", "NAME": "河堰村委会" }, "geometry": { "type": "Point", "coordinates": [ 102.899101229000053, 30.106615053000041 ] } },
{ "type": "Feature", "properties": { "OBJECTID": 242, "ID": "51180320720300", "NAME": "骑龙村村委会" }, "geometry": { "type": "Point", "coordinates": [ 103.299613979000071, 30.106492990000049 ] } },
{ "type": "Feature", "properties": { "OBJECTID": 243, "ID": "51180211120300", "NAME": "三益村委会" }, "geometry": { "type": "Point", "coordinates": [ 103.011589041000036, 30.105972303000044 ] } },
{ "type": "Feature", "properties": { "OBJECTID": 244, "ID": "51182521620000", "NAME": "永安村委会" }, "geometry": { "type": "Point", "coordinates": [ 102.883415228000047, 30.104665741000076 ] } },
{ "type": "Feature", "properties": { "OBJECTID": 245, "ID": "51180211120900", "NAME": "后盐村委会" }, "geometry": { "type": "Point", "coordinates": [ 103.044143666000082, 30.103963866000072 ] } },
{ "type": "Feature", "properties": { "OBJECTID": 246, "ID": "51180320720700", "NAME": "延源村村委会" }, "geometry": { "type": "Point", "coordinates": [ 103.301185604000068, 30.102537178000034 ] } },
{ "type": "Feature", "properties": { "OBJECTID": 247, "ID": "51180310020300", "NAME": "关口村村委会" }, "geometry": { "type": "Point", "coordinates": [ 103.089103729000044, 30.101640678000024 ] } },
{ "type": "Feature", "properties": { "OBJECTID": 248, "ID": "51180310220400", "NAME": "悔沟村村委会" }, "geometry": { "type": "Point", "coordinates": [ 103.203765854000039, 30.101392741000041 ] } },
{ "type": "Feature", "properties": { "OBJECTID": 249, "ID": "51182520220100", "NAME": "顺河村委会" }, "geometry": { "type": "Point", "coordinates": [ 102.736274728000069, 30.10110280300006 ] } },
{ "type": "Feature", "properties": { "OBJECTID": 250, "ID": "51182610120200", "NAME": "三江村委会" }, "geometry": { "type": "Point", "coordinates": [ 102.923919666000074, 30.10103605300003 ] } },
{ "type": "Feature", "properties": { "OBJECTID": 251, "ID": "51180310420600", "NAME": "七星村村委会" }, "geometry": { "type": "Point", "coordinates": [ 103.328414916000042, 30.099796303000062 ] } },
{ "type": "Feature", "properties": { "OBJECTID": 252, "ID": "51182521220100", "NAME": "程家窝村委会" }, "geometry": { "type": "Point", "coordinates": [ 102.802833541000041, 30.099140178000027 ] } },
{ "type": "Feature", "properties": { "OBJECTID": 253, "ID": "51180320720000", "NAME": "长沙河村村委会" }, "geometry": { "type": "Point", "coordinates": [ 103.277465791000054, 30.099000928000066 ] } },
{ "type": "Feature", "properties": { "OBJECTID": 254, "ID": "51180310420400", "NAME": "康乐村村委会" }, "geometry": { "type": "Point", "coordinates": [ 103.369178791000081, 30.098899866000068 ] } },
{ "type": "Feature", "properties": { "OBJECTID": 255, "ID": "51182521620000", "NAME": "银坪村委会" }, "geometry": { "type": "Point", "coordinates": [ 102.851593041000058, 30.098396303000072 ] } },
{ "type": "Feature", "properties": { "OBJECTID": 256, "ID": "51180310521500", "NAME": "南林村村委会" }, "geometry": { "type": "Point", "coordinates": [ 103.171112041000072, 30.098325740000064 ] } },
{ "type": "Feature", "properties": { "OBJECTID": 257, "ID": "51078112020500", "NAME": "扎营村民委员会" }, "geometry": { "type": "Point", "coordinates": [ 103.272109979000049, 30.097909928000036 ] } },
{ "type": "Feature", "properties": { "OBJECTID": 258, "ID": "51180310220100", "NAME": "几安村村委会" }, "geometry": { "type": "Point", "coordinates": [ 103.23301697900007, 30.096771241000056 ] } },
{ "type": "Feature", "properties": { "OBJECTID": 259, "ID": "51180320020400", "NAME": "五里村村委会" }, "geometry": { "type": "Point", "coordinates": [ 103.127838104000034, 30.095481866000057 ] } },
{ "type": "Feature", "properties": { "OBJECTID": 260, "ID": "51182521220500", "NAME": "李家村委会" }, "geometry": { "type": "Point", "coordinates": [ 102.791625979000059, 30.095367428000031 ] } },
{ "type": "Feature", "properties": { "OBJECTID": 261, "ID": "51180320720500", "NAME": "六合村村委会" }, "geometry": { "type": "Point", "coordinates": [ 103.244895916000075, 30.09511567800007 ] } },
{ "type": "Feature", "properties": { "OBJECTID": 262, "ID": "51180320020000", "NAME": "平桥村村委会" }, "geometry": { "type": "Point", "coordinates": [ 103.109733604000041, 30.094696053000064 ] } },
{ "type": "Feature", "properties": { "OBJECTID": 263, "ID": "51180310020400", "NAME": "箭竹村村委会" }, "geometry": { "type": "Point", "coordinates": [ 103.098724354000069, 30.09344099100008 ] } },
{ "type": "Feature", "properties": { "OBJECTID": 264, "ID": "51182521620300", "NAME": "铜山村委会" }, "geometry": { "type": "Point", "coordinates": [ 102.874656666000078, 30.093246491000059 ] } },
{ "type": "Feature", "properties": { "OBJECTID": 265, "ID": "51180320720600", "NAME": "金狮村村委会" }, "geometry": { "type": "Point", "coordinates": [ 103.304008479000061, 30.091873178000071 ] } },
{ "type": "Feature", "properties": { "OBJECTID": 266, "ID": "51180211120500", "NAME": "黄龙村委会" }, "geometry": { "type": "Point", "coordinates": [ 103.002807604000054, 30.091361990000053 ] } },
{ "type": "Feature", "properties": { "OBJECTID": 267, "ID": "51182521220100", "NAME": "张家村委会" }, "geometry": { "type": "Point", "coordinates": [ 102.820877104000033, 30.09117124100004 ] } },
{ "type": "Feature", "properties": { "OBJECTID": 268, "ID": "51182520220100", "NAME": "响水溪村委会" }, "geometry": { "type": "Point", "coordinates": [ 102.708663916000035, 30.091026303000035 ] } },
{ "type": "Feature", "properties": { "OBJECTID": 269, "ID": "51182521620400", "NAME": "孝廉村委会" }, "geometry": { "type": "Point", "coordinates": [ 102.881645229000071, 30.090665803000036 ] } },
{ "type": "Feature", "properties": { "OBJECTID": 270, "ID": "51180310220300", "NAME": "金刚村村委会" }, "geometry": { "type": "Point", "coordinates": [ 103.214752167000086, 30.090625741000053 ] } },
{ "type": "Feature", "properties": { "OBJECTID": 271, "ID": "51180310020800", "NAME": "安坪村村委会" }, "geometry": { "type": "Point", "coordinates": [ 103.136161792000053, 30.089599616000044 ] } },
{ "type": "Feature", "properties": { "OBJECTID": 272, "ID": "51180310020200", "NAME": "河坪村村委会" }, "geometry": { "type": "Point", "coordinates": [ 103.103408791000049, 30.089279178000027 ] } },
{ "type": "Feature", "properties": { "OBJECTID": 273, "ID": "51182610120200", "NAME": "三友村委会" }, "geometry": { "type": "Point", "coordinates": [ 102.906394979000083, 30.088838553000073 ] } },
{ "type": "Feature", "properties": { "OBJECTID": 274, "ID": "51182510020500", "NAME": "十里村委会" }, "geometry": { "type": "Point", "coordinates": [ 102.781585666000069, 30.088645928000062 ] } },
{ "type": "Feature", "properties": { "OBJECTID": 275, "ID": "51180310021300", "NAME": "同心村村委会" }, "geometry": { "type": "Point", "coordinates": [ 103.111297604000072, 30.088033678000045 ] } },
{ "type": "Feature", "properties": { "OBJECTID": 276, "ID": "51182521220000", "NAME": "大田村委会" }, "geometry": { "type": "Point", "coordinates": [ 102.810546854000052, 30.087858178000033 ] } },
{ "type": "Feature", "properties": { "OBJECTID": 277, "ID": "51180211120700", "NAME": "庙后村委会" }, "geometry": { "type": "Point", "coordinates": [ 102.985839854000062, 30.087535865000063 ] } },
{ "type": "Feature", "properties": { "OBJECTID": 278, "ID": "51180310021100", "NAME": "律沟村村委会" }, "geometry": { "type": "Point", "coordinates": [ 103.148139979000064, 30.08749961500007 ] } },
{ "type": "Feature", "properties": { "OBJECTID": 279, "ID": "51182520220200", "NAME": "武安村委会" }, "geometry": { "type": "Point", "coordinates": [ 102.713623041000062, 30.08601761500006 ] } },
{ "type": "Feature", "properties": { "OBJECTID": 280, "ID": "51182520220300", "NAME": "红星村委会" }, "geometry": { "type": "Point", "coordinates": [ 102.682304353000063, 30.085735303000035 ] } },
{ "type": "Feature", "properties": { "OBJECTID": 281, "ID": "51180310620200", "NAME": "金花村村委会" }, "geometry": { "type": "Point", "coordinates": [ 103.074943542000085, 30.085529303000044 ] } },
{ "type": "Feature", "properties": { "OBJECTID": 282, "ID": "51180310221100", "NAME": "五花村村委会" }, "geometry": { "type": "Point", "coordinates": [ 103.201988229000051, 30.085327178000057 ] } },
{ "type": "Feature", "properties": { "OBJECTID": 283, "ID": "51180211120800", "NAME": "红牌村委会" }, "geometry": { "type": "Point", "coordinates": [ 103.028961166000045, 30.084779741000034 ] } },
{ "type": "Feature", "properties": { "OBJECTID": 284, "ID": "51180310420700", "NAME": "天目村村委会" }, "geometry": { "type": "Point", "coordinates": [ 103.327659604000075, 30.084102615000063 ] } },
{ "type": "Feature", "properties": { "OBJECTID": 285, "ID": "51180310021000", "NAME": "上瓦村村委会" }, "geometry": { "type": "Point", "coordinates": [ 103.164436354000088, 30.08386805300006 ] } },
{ "type": "Feature", "properties": { "OBJECTID": 286, "ID": "51182510020400", "NAME": "白石村委会" }, "geometry": { "type": "Point", "coordinates": [ 102.771408103000056, 30.083431241000028 ] } },
{ "type": "Feature", "properties": { "OBJECTID": 287, "ID": "51180310020100", "NAME": "德福村村委会" }, "geometry": { "type": "Point", "coordinates": [ 103.093841542000064, 30.083110803000068 ] } },
{ "type": "Feature", "properties": { "OBJECTID": 288, "ID": "51182521220200", "NAME": "云顶村委会" }, "geometry": { "type": "Point", "coordinates": [ 102.80406191600008, 30.082719803000032 ] } },
{ "type": "Feature", "properties": { "OBJECTID": 289, "ID": "51182521620100", "NAME": "河下村委会" }, "geometry": { "type": "Point", "coordinates": [ 102.839073166000048, 30.082097990000079 ] } },
{ "type": "Feature", "properties": { "OBJECTID": 290, "ID": "51180310620100", "NAME": "蒙山村村委会" }, "geometry": { "type": "Point", "coordinates": [ 103.061561603000087, 30.081516240000042 ] } },
{ "type": "Feature", "properties": { "OBJECTID": 291, "ID": "51180310220000", "NAME": "水月村村委会" }, "geometry": { "type": "Point", "coordinates": [ 103.232910167000057, 30.080680866000023 ] } },
{ "type": "Feature", "properties": { "OBJECTID": 292, "ID": "51180310020500", "NAME": "贯坪村村委会" }, "geometry": { "type": "Point", "coordinates": [ 103.123222354000063, 30.080165865000026 ] } },
{ "type": "Feature", "properties": { "OBJECTID": 293, "ID": "51180310021200", "NAME": "紫霞村村委会" }, "geometry": { "type": "Point", "coordinates": [ 103.103485104000072, 30.079576491000068 ] } },
{ "type": "Feature", "properties": { "OBJECTID": 294, "ID": "51182520220000", "NAME": "沙坪村委会" }, "geometry": { "type": "Point", "coordinates": [ 102.731529228000056, 30.079328553000039 ] } },
{ "type": "Feature", "properties": { "OBJECTID": 295, "ID": "51180310220900", "NAME": "龙水村村委会" }, "geometry": { "type": "Point", "coordinates": [ 103.245071416000087, 30.078689553000061 ] } },
{ "type": "Feature", "properties": { "OBJECTID": 296, "ID": "51180310221000", "NAME": "骑岗村村委会" }, "geometry": { "type": "Point", "coordinates": [ 103.20989991600004, 30.078626615000076 ] } },
{ "type": "Feature", "properties": { "OBJECTID": 297, "ID": "51182610120400", "NAME": "凤凰村委会" }, "geometry": { "type": "Point", "coordinates": [ 102.890441916000043, 30.077712990000066 ] } },
{ "type": "Feature", "properties": { "OBJECTID": 298, "ID": "51182521620200", "NAME": "柏树村委会" }, "geometry": { "type": "Point", "coordinates": [ 102.865356416000054, 30.076173803000074 ] } },
{ "type": "Feature", "properties": { "OBJECTID": 299, "ID": "51180310020700", "NAME": "中瓦村村委会" }, "geometry": { "type": "Point", "coordinates": [ 103.139099103000035, 30.076133740000046 ] } },
{ "type": "Feature", "properties": { "OBJECTID": 300, "ID": "51182520220400", "NAME": "沙湾村委会" }, "geometry": { "type": "Point", "coordinates": [ 102.644302353000057, 30.075500491000071 ] } },
{ "type": "Feature", "properties": { "OBJECTID": 301, "ID": "51180310221200", "NAME": "石城村村委会" }, "geometry": { "type": "Point", "coordinates": [ 103.222732541000084, 30.074493428000039 ] } },
{ "type": "Feature", "properties": { "OBJECTID": 302, "ID": "51180211120600", "NAME": "碧峰村委会" }, "geometry": { "type": "Point", "coordinates": [ 102.973464979000084, 30.074262616000055 ] } },
{ "type": "Feature", "properties": { "OBJECTID": 303, "ID": "51180310020000", "NAME": "德光村村委会" }, "geometry": { "type": "Point", "coordinates": [ 103.105850228000065, 30.071781178000037 ] } },
{ "type": "Feature", "properties": { "OBJECTID": 304, "ID": "51180310321300", "NAME": "郑岩村村委会" }, "geometry": { "type": "Point", "coordinates": [ 103.182685853000066, 30.071729678000054 ] } },
{ "type": "Feature", "properties": { "OBJECTID": 305, "ID": "51180310020900", "NAME": "周坪村村委会" }, "geometry": { "type": "Point", "coordinates": [ 103.154640229000051, 30.071145991000037 ] } },
{ "type": "Feature", "properties": { "OBJECTID": 306, "ID": "51180310321100", "NAME": "沿河村村委会" }, "geometry": { "type": "Point", "coordinates": [ 103.175178541000037, 30.070705428000053 ] } },
{ "type": "Feature", "properties": { "OBJECTID": 307, "ID": "51182510000300", "NAME": "西城居委会" }, "geometry": { "type": "Point", "coordinates": [ 102.750267041000086, 30.070020678000049 ] } },
{ "type": "Feature", "properties": { "OBJECTID": 308, "ID": "51182520820400", "NAME": "瓦坪村委会" }, "geometry": { "type": "Point", "coordinates": [ 102.838264478000042, 30.06842424000007 ] } },
{ "type": "Feature", "properties": { "OBJECTID": 309, "ID": "51182521220300", "NAME": "桐林村委会" }, "geometry": { "type": "Point", "coordinates": [ 102.811149604000036, 30.068172428000025 ] } },
{ "type": "Feature", "properties": { "OBJECTID": 310, "ID": "51182510020300", "NAME": "黄铜村委会" }, "geometry": { "type": "Point", "coordinates": [ 102.757270791000053, 30.068115240000054 ] } },
{ "type": "Feature", "properties": { "OBJECTID": 311, "ID": "51182510021100", "NAME": "两岔村委会" }, "geometry": { "type": "Point", "coordinates": [ 102.781509416000063, 30.067777616000058 ] } },
{ "type": "Feature", "properties": { "OBJECTID": 312, "ID": "51180310220500", "NAME": "中居村村委会" }, "geometry": { "type": "Point", "coordinates": [ 103.221076979000088, 30.067769991000034 ] } },
{ "type": "Feature", "properties": { "OBJECTID": 313, "ID": "51180320120200", "NAME": "清河村村委会" }, "geometry": { "type": "Point", "coordinates": [ 103.19589235400008, 30.065889365000032 ] } },
{ "type": "Feature", "properties": { "OBJECTID": 314, "ID": "51182510020000", "NAME": "北城村委会" }, "geometry": { "type": "Point", "coordinates": [ 102.75794985400006, 30.06584930300005 ] } },
{ "type": "Feature", "properties": { "OBJECTID": 315, "ID": "51180310620500", "NAME": "梨花村村委会" }, "geometry": { "type": "Point", "coordinates": [ 103.092773416000057, 30.065040616000033 ] } },
{ "type": "Feature", "properties": { "OBJECTID": 316, "ID": "51182521120300", "NAME": "罗代村委会" }, "geometry": { "type": "Point", "coordinates": [ 102.891532916000074, 30.064634303000048 ] } },
{ "type": "Feature", "properties": { "OBJECTID": 317, "ID": "51180210020200", "NAME": "峡口村委会" }, "geometry": { "type": "Point", "coordinates": [ 103.011535666000043, 30.064205178000066 ] } },
{ "type": "Feature", "properties": { "OBJECTID": 318, "ID": "51182510020600", "NAME": "沙坝村委会" }, "geometry": { "type": "Point", "coordinates": [ 102.751457228000049, 30.064088803000061 ] } },
{ "type": "Feature", "properties": { "OBJECTID": 319, "ID": "51072212320600", "NAME": "古房沟村民委员会" }, "geometry": { "type": "Point", "coordinates": [ 103.140510542000072, 30.063512803000037 ] } },
{ "type": "Feature", "properties": { "OBJECTID": 320, "ID": "51182510000200", "NAME": "东城居委会" }, "geometry": { "type": "Point", "coordinates": [ 102.76260379100006, 30.063016866000055 ] } },
{ "type": "Feature", "properties": { "OBJECTID": 321, "ID": "51180310320700", "NAME": "瓦窑村村委会" }, "geometry": { "type": "Point", "coordinates": [ 103.128341667000086, 30.059131616000059 ] } },
{ "type": "Feature", "properties": { "OBJECTID": 322, "ID": "51180310620000", "NAME": "名雅村村委会" }, "geometry": { "type": "Point", "coordinates": [ 103.058418291000066, 30.05904580300006 ] } },
{ "type": "Feature", "properties": { "OBJECTID": 323, "ID": "51180310620700", "NAME": "大弓村村委会" }, "geometry": { "type": "Point", "coordinates": [ 103.090789791000077, 30.058757803000049 ] } },
{ "type": "Feature", "properties": { "OBJECTID": 324, "ID": "51182520320200", "NAME": "新政村委会" }, "geometry": { "type": "Point", "coordinates": [ 102.726448041000083, 30.057128928000054 ] } },
{ "type": "Feature", "properties": { "OBJECTID": 325, "ID": "51180210020400", "NAME": "蒙泉村委会" }, "geometry": { "type": "Point", "coordinates": [ 103.049598666000065, 30.056032178000066 ] } },
{ "type": "Feature", "properties": { "OBJECTID": 326, "ID": "51180310620300", "NAME": "卫干村村委会" }, "geometry": { "type": "Point", "coordinates": [ 103.109100354000077, 30.05580899000006 ] } },
{ "type": "Feature", "properties": { "OBJECTID": 327, "ID": "51180310321200", "NAME": "笔山村村委会" }, "geometry": { "type": "Point", "coordinates": [ 103.173667916000056, 30.055770865000056 ] } },
{ "type": "Feature", "properties": { "OBJECTID": 328, "ID": "51180310620600", "NAME": "水碾坝村委会" }, "geometry": { "type": "Point", "coordinates": [ 103.08187866600008, 30.055309303000058 ] } },
{ "type": "Feature", "properties": { "OBJECTID": 329, "ID": "51182520820300", "NAME": "徐家村委会" }, "geometry": { "type": "Point", "coordinates": [ 102.845558166000046, 30.054927803000055 ] } },
{ "type": "Feature", "properties": { "OBJECTID": 330, "ID": "51182510021000", "NAME": "马溪村委会" }, "geometry": { "type": "Point", "coordinates": [ 102.793090791000054, 30.054792428000042 ] } },
{ "type": "Feature", "properties": { "OBJECTID": 331, "ID": "51182510000400", "NAME": "向阳居委会" }, "geometry": { "type": "Point", "coordinates": [ 102.767234791000078, 30.054677990000073 ] } },
{ "type": "Feature", "properties": { "OBJECTID": 332, "ID": "51182521120200", "NAME": "半沟村委会" }, "geometry": { "type": "Point", "coordinates": [ 102.872886666000056, 30.054359428000055 ] } },
{ "type": "Feature", "properties": { "OBJECTID": 333, "ID": "51180210020300", "NAME": "永兴村委会" }, "geometry": { "type": "Point", "coordinates": [ 103.028091416000052, 30.054065678000029 ] } },
{ "type": "Feature", "properties": { "OBJECTID": 334, "ID": "51180310220800", "NAME": "岱宗村村民委员会" }, "geometry": { "type": "Point", "coordinates": [ 103.218200666000087, 30.052885053000068 ] } },
{ "type": "Feature", "properties": { "OBJECTID": 335, "ID": "51180310321000", "NAME": "金桥村村委会" }, "geometry": { "type": "Point", "coordinates": [ 103.165985104000072, 30.052820178000047 ] } },
{ "type": "Feature", "properties": { "OBJECTID": 336, "ID": "51180320120300", "NAME": "桥楼村村委会" }, "geometry": { "type": "Point", "coordinates": [ 103.18492129100008, 30.052560803000063 ] } },
{ "type": "Feature", "properties": { "OBJECTID": 337, "ID": "51182520320500", "NAME": "太阳村委会" }, "geometry": { "type": "Point", "coordinates": [ 102.67718504000004, 30.050592428000073 ] } },
{ "type": "Feature", "properties": { "OBJECTID": 338, "ID": "51182610120100", "NAME": "新庄村委会" }, "geometry": { "type": "Point", "coordinates": [ 102.891647354000042, 30.050538990000064 ] } },
{ "type": "Feature", "properties": { "OBJECTID": 339, "ID": "51180210020000", "NAME": "金鸡村委会" }, "geometry": { "type": "Point", "coordinates": [ 103.068405166000048, 30.05019380300007 ] } },
{ "type": "Feature", "properties": { "OBJECTID": 340, "ID": "51010600500900", "NAME": "化成社区居委会" }, "geometry": { "type": "Point", "coordinates": [ 103.152580292000039, 30.049482366000063 ] } },
{ "type": "Feature", "properties": { "OBJECTID": 341, "ID": "51180320120100", "NAME": "苏山村村委会" }, "geometry": { "type": "Point", "coordinates": [ 103.203575104000038, 30.049390803000051 ] } },
{ "type": "Feature", "properties": { "OBJECTID": 342, "ID": "51180310320600", "NAME": "江落村村委会" }, "geometry": { "type": "Point", "coordinates": [ 103.122627229000045, 30.048816678000037 ] } },
{ "type": "Feature", "properties": { "OBJECTID": 343, "ID": "51180310220700", "NAME": "石堰村村委会" }, "geometry": { "type": "Point", "coordinates": [ 103.225746166000079, 30.04875755300003 ] } },
{ "type": "Feature", "properties": { "OBJECTID": 344, "ID": "51180310320400", "NAME": "两河村村委会" }, "geometry": { "type": "Point", "coordinates": [ 103.169540416000075, 30.048494365000067 ] } },
{ "type": "Feature", "properties": { "OBJECTID": 345, "ID": "51182520620000", "NAME": "紫石关村委会" }, "geometry": { "type": "Point", "coordinates": [ 102.598831166000082, 30.047622678000039 ] } },
{ "type": "Feature", "properties": { "OBJECTID": 346, "ID": "51180210020300", "NAME": "七盘村委会" }, "geometry": { "type": "Point", "coordinates": [ 102.978607166000074, 30.04708099100003 ] } },
{ "type": "Feature", "properties": { "OBJECTID": 347, "ID": "51182520820500", "NAME": "任家村委会" }, "geometry": { "type": "Point", "coordinates": [ 102.795387291000054, 30.046686178000073 ] } },
{ "type": "Feature", "properties": { "OBJECTID": 348, "ID": "51182520820200", "NAME": "大窝村委会" }, "geometry": { "type": "Point", "coordinates": [ 102.829978916000073, 30.046421053000074 ] } },
{ "type": "Feature", "properties": { "OBJECTID": 349, "ID": "51182520320500", "NAME": "进步村委会" }, "geometry": { "type": "Point", "coordinates": [ 102.740692166000088, 30.046390553000037 ] } },
{ "type": "Feature", "properties": { "OBJECTID": 350, "ID": "51180210020000", "NAME": "丁家村委会" }, "geometry": { "type": "Point", "coordinates": [ 103.010627729000078, 30.046312303000036 ] } },
{ "type": "Feature", "properties": { "OBJECTID": 351, "ID": "51182510020900", "NAME": "龙尾村委会" }, "geometry": { "type": "Point", "coordinates": [ 102.767524729000058, 30.046031928000048 ] } },
{ "type": "Feature", "properties": { "OBJECTID": 352, "ID": "51180221120000", "NAME": "龙船村委会" }, "geometry": { "type": "Point", "coordinates": [ 103.087028478000036, 30.045703865000064 ] } },
{ "type": "Feature", "properties": { "OBJECTID": 353, "ID": "51182510020800", "NAME": "梅子村委会" }, "geometry": { "type": "Point", "coordinates": [ 102.780868541000075, 30.045553178000034 ] } },
{ "type": "Feature", "properties": { "OBJECTID": 354, "ID": "51180310620400", "NAME": "槐树村村委会" }, "geometry": { "type": "Point", "coordinates": [ 103.103446979000068, 30.045049678000055 ] } },
{ "type": "Feature", "properties": { "OBJECTID": 355, "ID": "51180210020600", "NAME": "张碗村委会" }, "geometry": { "type": "Point", "coordinates": [ 103.031555166000032, 30.044475553000041 ] } },
{ "type": "Feature", "properties": { "OBJECTID": 356, "ID": "51180320120000", "NAME": "六坪村村委会" }, "geometry": { "type": "Point", "coordinates": [ 103.19471741600006, 30.044208553000033 ] } },
{ "type": "Feature", "properties": { "OBJECTID": 357, "ID": "51182520320400", "NAME": "黍子村委会" }, "geometry": { "type": "Point", "coordinates": [ 102.669204728000068, 30.043281553000043 ] } },
{ "type": "Feature", "properties": { "OBJECTID": 358, "ID": "51182510120400", "NAME": "荡村村委会" }, "geometry": { "type": "Point", "coordinates": [ 102.841224666000073, 30.043237678000025 ] } },
{ "type": "Feature", "properties": { "OBJECTID": 359, "ID": "51180210020700", "NAME": "陇西村委会" }, "geometry": { "type": "Point", "coordinates": [ 103.016159041000037, 30.043209053000055 ] } },
{ "type": "Feature", "properties": { "OBJECTID": 360, "ID": "51180210000300", "NAME": "汉碑路社区居委会" }, "geometry": { "type": "Point", "coordinates": [ 103.056762666000054, 30.04288292800004 ] } },
{ "type": "Feature", "properties": { "OBJECTID": 361, "ID": "51180211020500", "NAME": "龙池村委会" }, "geometry": { "type": "Point", "coordinates": [ 102.92788697900005, 30.04075049000005 ] } },
{ "type": "Feature", "properties": { "OBJECTID": 362, "ID": "51180210020100", "NAME": "福坪村委会" }, "geometry": { "type": "Point", "coordinates": [ 103.001846291000049, 30.040245053000035 ] } },
{ "type": "Feature", "properties": { "OBJECTID": 363, "ID": "51182520820100", "NAME": "毛山村委会" }, "geometry": { "type": "Point", "coordinates": [ 102.821731540000087, 30.039121616000045 ] } },
{ "type": "Feature", "properties": { "OBJECTID": 364, "ID": "51182520320400", "NAME": "百家村委会" }, "geometry": { "type": "Point", "coordinates": [ 102.73814391600007, 30.038887053000053 ] } },
{ "type": "Feature", "properties": { "OBJECTID": 365, "ID": "51182520620100", "NAME": "新地头村委会" }, "geometry": { "type": "Point", "coordinates": [ 102.578742979000083, 30.038345366000044 ] } },
{ "type": "Feature", "properties": { "OBJECTID": 366, "ID": "51180210020500", "NAME": "席草村委会" }, "geometry": { "type": "Point", "coordinates": [ 103.04232022900004, 30.038154615000053 ] } },
{ "type": "Feature", "properties": { "OBJECTID": 367, "ID": "51180310320400", "NAME": "箭道村村委会" }, "geometry": { "type": "Point", "coordinates": [ 103.147476166000047, 30.037134178000031 ] } },
{ "type": "Feature", "properties": { "OBJECTID": 368, "ID": "51182520820000", "NAME": "大坪村委会" }, "geometry": { "type": "Point", "coordinates": [ 102.806304916000045, 30.03710555300006 ] } },
{ "type": "Feature", "properties": { "OBJECTID": 369, "ID": "51180320121100", "NAME": "凤凰村村委会" }, "geometry": { "type": "Point", "coordinates": [ 103.213020354000037, 30.036560053000073 ] } },
{ "type": "Feature", "properties": { "OBJECTID": 370, "ID": "51180221120100", "NAME": "大元村委会" }, "geometry": { "type": "Point", "coordinates": [ 103.077354416000048, 30.035894365000047 ] } },
{ "type": "Feature", "properties": { "OBJECTID": 371, "ID": "51180221120600", "NAME": "桂花村委会" }, "geometry": { "type": "Point", "coordinates": [ 103.113349916000061, 30.033718115000056 ] } },
{ "type": "Feature", "properties": { "OBJECTID": 372, "ID": "51180210020000", "NAME": "福国村委会" }, "geometry": { "type": "Point", "coordinates": [ 102.996818541000039, 30.033332803000064 ] } },
{ "type": "Feature", "properties": { "OBJECTID": 373, "ID": "51182520320200", "NAME": "互助村委会" }, "geometry": { "type": "Point", "coordinates": [ 102.68729397900006, 30.031574241000044 ] } },
{ "type": "Feature", "properties": { "OBJECTID": 374, "ID": "51182510120300", "NAME": "光荣村委会" }, "geometry": { "type": "Point", "coordinates": [ 102.84312441600008, 30.030364991000056 ] } },
{ "type": "Feature", "properties": { "OBJECTID": 375, "ID": "51180320120600", "NAME": "南水村村委会" }, "geometry": { "type": "Point", "coordinates": [ 103.183670041000084, 30.029743178000047 ] } },
{ "type": "Feature", "properties": { "OBJECTID": 376, "ID": "51182520320300", "NAME": "劳动村委会" }, "geometry": { "type": "Point", "coordinates": [ 102.68077085300007, 30.028377553000041 ] } },
{ "type": "Feature", "properties": { "OBJECTID": 377, "ID": "51182610120300", "NAME": "飞仙村委会" }, "geometry": { "type": "Point", "coordinates": [ 102.894966104000048, 30.025779740000075 ] } },
{ "type": "Feature", "properties": { "OBJECTID": 378, "ID": "51180210020200", "NAME": "大石村委会" }, "geometry": { "type": "Point", "coordinates": [ 102.973754854000049, 30.025680553000029 ] } },
{ "type": "Feature", "properties": { "OBJECTID": 379, "ID": "51182510120100", "NAME": "切山村委会" }, "geometry": { "type": "Point", "coordinates": [ 102.858207729000071, 30.025468803000024 ] } },
{ "type": "Feature", "properties": { "OBJECTID": 380, "ID": "51182520320000", "NAME": "思经村委会" }, "geometry": { "type": "Point", "coordinates": [ 102.731132479000053, 30.025421115000029 ] } },
{ "type": "Feature", "properties": { "OBJECTID": 381, "ID": "51182510100500", "NAME": "新区居委会" }, "geometry": { "type": "Point", "coordinates": [ 102.811576854000066, 30.025396366000052 ] } },
{ "type": "Feature", "properties": { "OBJECTID": 382, "ID": "51182510120000", "NAME": "沙漩村委会" }, "geometry": { "type": "Point", "coordinates": [ 102.802703854000072, 30.025344865000079 ] } },
{ "type": "Feature", "properties": { "OBJECTID": 383, "ID": "51180310300200", "NAME": "大堂坝社区居民委员" }, "geometry": { "type": "Point", "coordinates": [ 103.162544229000048, 30.025337241000045 ] } },
{ "type": "Feature", "properties": { "OBJECTID": 384, "ID": "51182510120600", "NAME": "破磷村委会" }, "geometry": { "type": "Point", "coordinates": [ 102.795135479000066, 30.025278116000038 ] } },
{ "type": "Feature", "properties": { "OBJECTID": 385, "ID": "51182520320000", "NAME": "团结村委会" }, "geometry": { "type": "Point", "coordinates": [ 102.710182165000049, 30.024370178000026 ] } },
{ "type": "Feature", "properties": { "OBJECTID": 386, "ID": "51180310320100", "NAME": "三岔村村委会" }, "geometry": { "type": "Point", "coordinates": [ 103.140624979000052, 30.024198553000076 ] } },
{ "type": "Feature", "properties": { "OBJECTID": 387, "ID": "51180210020700", "NAME": "红星村委会" }, "geometry": { "type": "Point", "coordinates": [ 103.000183104000087, 30.024080303000062 ] } },
{ "type": "Feature", "properties": { "OBJECTID": 388, "ID": "51182521120000", "NAME": "多功村委会" }, "geometry": { "type": "Point", "coordinates": [ 102.884017916000062, 30.023969678000071 ] } },
{ "type": "Feature", "properties": { "OBJECTID": 389, "ID": "51182520320700", "NAME": "小沟村委会" }, "geometry": { "type": "Point", "coordinates": [ 102.636352541000065, 30.022661178000078 ] } },
{ "type": "Feature", "properties": { "OBJECTID": 390, "ID": "51180210020600", "NAME": "桥楼村委会" }, "geometry": { "type": "Point", "coordinates": [ 102.991241479000053, 30.02263449000003 ] } },
{ "type": "Feature", "properties": { "OBJECTID": 391, "ID": "51182510120200", "NAME": "新民村委会" }, "geometry": { "type": "Point", "coordinates": [ 102.834732041000052, 30.022331241000074 ] } },
{ "type": "Feature", "properties": { "OBJECTID": 392, "ID": "51182520320100", "NAME": "民主村委会" }, "geometry": { "type": "Point", "coordinates": [ 102.739791854000032, 30.022298803000069 ] } },
{ "type": "Feature", "properties": { "OBJECTID": 393, "ID": "51180320121000", "NAME": "泉水村村委会" }, "geometry": { "type": "Point", "coordinates": [ 103.220115667000073, 30.02166174000007 ] } },
{ "type": "Feature", "properties": { "OBJECTID": 394, "ID": "51182510120100", "NAME": "兴中村委会" }, "geometry": { "type": "Point", "coordinates": [ 102.827468854000074, 30.021594991000029 ] } },
{ "type": "Feature", "properties": { "OBJECTID": 395, "ID": "51180210120200", "NAME": "飞梁村委会" }, "geometry": { "type": "Point", "coordinates": [ 103.129943854000032, 30.021570178000047 ] } },
{ "type": "Feature", "properties": { "OBJECTID": 396, "ID": "51182520320100", "NAME": "大河村委会" }, "geometry": { "type": "Point", "coordinates": [ 102.707138040000075, 30.02048680300004 ] } },
{ "type": "Feature", "properties": { "OBJECTID": 397, "ID": "51180210020600", "NAME": "金凤村委会" }, "geometry": { "type": "Point", "coordinates": [ 103.021095291000051, 30.020006178000074 ] } },
{ "type": "Feature", "properties": { "OBJECTID": 398, "ID": "51180200420200", "NAME": "姚桥村委会" }, "geometry": { "type": "Point", "coordinates": [ 103.064582853000047, 30.019952803000024 ] } },
{ "type": "Feature", "properties": { "OBJECTID": 399, "ID": "51180210020100", "NAME": "白塔村委会" }, "geometry": { "type": "Point", "coordinates": [ 103.012603729000034, 30.019945115000041 ] } },
{ "type": "Feature", "properties": { "OBJECTID": 400, "ID": "51180211020400", "NAME": "大深村委会" }, "geometry": { "type": "Point", "coordinates": [ 102.914016729000082, 30.019166928000061 ] } },
{ "type": "Feature", "properties": { "OBJECTID": 401, "ID": "51182510120700", "NAME": "乐坝村委会" }, "geometry": { "type": "Point", "coordinates": [ 102.849952729000051, 30.019008615000075 ] } },
{ "type": "Feature", "properties": { "OBJECTID": 402, "ID": "51180320120700", "NAME": "新市村村委会" }, "geometry": { "type": "Point", "coordinates": [ 103.196647666000047, 30.017770741000049 ] } },
{ "type": "Feature", "properties": { "OBJECTID": 403, "ID": "51182520320600", "NAME": "山坪村委会" }, "geometry": { "type": "Point", "coordinates": [ 102.659805291000055, 30.01776886600004 ] } },
{ "type": "Feature", "properties": { "OBJECTID": 404, "ID": "51180200420400", "NAME": "土桥村委会" }, "geometry": { "type": "Point", "coordinates": [ 103.041313166000066, 30.017541865000055 ] } },
{ "type": "Feature", "properties": { "OBJECTID": 405, "ID": "51182510120300", "NAME": "苏家村委会" }, "geometry": { "type": "Point", "coordinates": [ 102.78058622900005, 30.01721761500005 ] } },
{ "type": "Feature", "properties": { "OBJECTID": 406, "ID": "51180210120300", "NAME": "清溪村委会" }, "geometry": { "type": "Point", "coordinates": [ 103.115783666000084, 30.017070741000055 ] } },
{ "type": "Feature", "properties": { "OBJECTID": 407, "ID": "51182521120500", "NAME": "仁义村委会" }, "geometry": { "type": "Point", "coordinates": [ 102.885704041000054, 30.016513803000066 ] } },
{ "type": "Feature", "properties": { "OBJECTID": 408, "ID": "51180310320000", "NAME": "双墙村村委会" }, "geometry": { "type": "Point", "coordinates": [ 103.158737166000037, 30.015417115000048 ] } },
{ "type": "Feature", "properties": { "OBJECTID": 409, "ID": "51182510120100", "NAME": "秧田村委会" }, "geometry": { "type": "Point", "coordinates": [ 102.816062916000078, 30.014837240000077 ] } },
{ "type": "Feature", "properties": { "OBJECTID": 410, "ID": "51182510120200", "NAME": "柳家村委会" }, "geometry": { "type": "Point", "coordinates": [ 102.794853228000079, 30.01360130300003 ] } },
{ "type": "Feature", "properties": { "OBJECTID": 411, "ID": "51182521020600", "NAME": "盐店村委会" }, "geometry": { "type": "Point", "coordinates": [ 102.851829541000086, 30.012931803000072 ] } },
{ "type": "Feature", "properties": { "OBJECTID": 412, "ID": "51180211020200", "NAME": "陆王村委会" }, "geometry": { "type": "Point", "coordinates": [ 102.963714604000074, 30.010976803000062 ] } },
{ "type": "Feature", "properties": { "OBJECTID": 413, "ID": "51180320120900", "NAME": "尖峰村村委会" }, "geometry": { "type": "Point", "coordinates": [ 103.213706979000051, 30.010606740000071 ] } },
{ "type": "Feature", "properties": { "OBJECTID": 414, "ID": "51182520620200", "NAME": "小仁烟村委会" }, "geometry": { "type": "Point", "coordinates": [ 102.536216728000056, 30.009052303000033 ] } },
{ "type": "Feature", "properties": { "OBJECTID": 415, "ID": "51180210020400", "NAME": "联坪村委会" }, "geometry": { "type": "Point", "coordinates": [ 103.001258853000081, 30.008447678000039 ] } },
{ "type": "Feature", "properties": { "OBJECTID": 416, "ID": "51180210320300", "NAME": "穆家村委会" }, "geometry": { "type": "Point", "coordinates": [ 103.056571979000068, 30.008140553000032 ] } },
{ "type": "Feature", "properties": { "OBJECTID": 417, "ID": "51180210000400", "NAME": "斗胆社区居委会" }, "geometry": { "type": "Point", "coordinates": [ 102.97984316600008, 30.007755303000067 ] } },
{ "type": "Feature", "properties": { "OBJECTID": 418, "ID": "51180221120300", "NAME": "硝坝村委会" }, "geometry": { "type": "Point", "coordinates": [ 103.090332042000057, 30.007026678000045 ] } },
{ "type": "Feature", "properties": { "OBJECTID": 419, "ID": "51180210120100", "NAME": "广华村委会" }, "geometry": { "type": "Point", "coordinates": [ 103.133949291000079, 30.006961803000024 ] } },
{ "type": "Feature", "properties": { "OBJECTID": 420, "ID": "51182510120400", "NAME": "九十村委会" }, "geometry": { "type": "Point", "coordinates": [ 102.762260416000061, 30.006212240000025 ] } },
{ "type": "Feature", "properties": { "OBJECTID": 421, "ID": "51180320120800", "NAME": "林泉村村委会" }, "geometry": { "type": "Point", "coordinates": [ 103.194892853000056, 30.005357740000079 ] } },
{ "type": "Feature", "properties": { "OBJECTID": 422, "ID": "51180320620100", "NAME": "红岩村村委会" }, "geometry": { "type": "Point", "coordinates": [ 103.17352297900004, 30.005241365000074 ] } },
{ "type": "Feature", "properties": { "OBJECTID": 423, "ID": "51180200400200", "NAME": "沙湾路社区居委会" }, "geometry": { "type": "Point", "coordinates": [ 103.020477291000077, 30.005203240000071 ] } },
{ "type": "Feature", "properties": { "OBJECTID": 424, "ID": "51182521020400", "NAME": "姜家坝村委会" }, "geometry": { "type": "Point", "coordinates": [ 102.882049541000072, 30.004060741000046 ] } },
{ "type": "Feature", "properties": { "OBJECTID": 425, "ID": "51180210120000", "NAME": "香花村委会" }, "geometry": { "type": "Point", "coordinates": [ 103.120422354000084, 30.003948240000057 ] } },
{ "type": "Feature", "properties": { "OBJECTID": 426, "ID": "51082111621000", "NAME": "五营村民委员会" }, "geometry": { "type": "Point", "coordinates": [ 102.952049229000067, 30.003173803000038 ] } },
{ "type": "Feature", "properties": { "OBJECTID": 427, "ID": "51182521020800", "NAME": "石家村委会" }, "geometry": { "type": "Point", "coordinates": [ 102.830017103000046, 30.001682303000052 ] } },
{ "type": "Feature", "properties": { "OBJECTID": 428, "ID": "51180200320900", "NAME": "沙溪村委会" }, "geometry": { "type": "Point", "coordinates": [ 102.984848041000078, 30.001293178000026 ] } },
{ "type": "Feature", "properties": { "OBJECTID": 429, "ID": "51182520620300", "NAME": "大仁烟村委会" }, "geometry": { "type": "Point", "coordinates": [ 102.487144479000051, 30.00079730300007 ] } },
{ "type": "Feature", "properties": { "OBJECTID": 430, "ID": "51182521020000", "NAME": "安乐村委会" }, "geometry": { "type": "Point", "coordinates": [ 102.853439353000056, 30.000566491000029 ] } },
{ "type": "Feature", "properties": { "OBJECTID": 431, "ID": "51180210320200", "NAME": "顺路村委会" }, "geometry": { "type": "Point", "coordinates": [ 103.034439104000057, 30.000024803000031 ] } },
{ "type": "Feature", "properties": { "OBJECTID": 432, "ID": "51182520420300", "NAME": "联合村委会" }, "geometry": { "type": "Point", "coordinates": [ 102.732498166000084, 29.997922928000037 ] } },
{ "type": "Feature", "properties": { "OBJECTID": 433, "ID": "51182520320300", "NAME": "马渡村委会" }, "geometry": { "type": "Point", "coordinates": [ 102.699996978000058, 29.997348803000079 ] } },
{ "type": "Feature", "properties": { "OBJECTID": 434, "ID": "51180210420700", "NAME": "顺渡村委会" }, "geometry": { "type": "Point", "coordinates": [ 102.971908541000062, 29.997282053000049 ] } },
{ "type": "Feature", "properties": { "OBJECTID": 435, "ID": "51180210320100", "NAME": "天宝村委会" }, "geometry": { "type": "Point", "coordinates": [ 103.04354860400008, 29.996538178000037 ] } },
{ "type": "Feature", "properties": { "OBJECTID": 436, "ID": "51180221120400", "NAME": "顶峰村委会" }, "geometry": { "type": "Point", "coordinates": [ 103.089202854000064, 29.995765678000055 ] } },
{ "type": "Feature", "properties": { "OBJECTID": 437, "ID": "51180210120400", "NAME": "石桥村委会" }, "geometry": { "type": "Point", "coordinates": [ 103.103355416000056, 29.995313615000043 ] } },
{ "type": "Feature", "properties": { "OBJECTID": 438, "ID": "51180210320400", "NAME": "前进村委会" }, "geometry": { "type": "Point", "coordinates": [ 103.068366978000086, 29.995202991000042 ] } },
{ "type": "Feature", "properties": { "OBJECTID": 439, "ID": "51182521720500", "NAME": "岩下村委会" }, "geometry": { "type": "Point", "coordinates": [ 102.796012854000082, 29.99405480300004 ] } },
{ "type": "Feature", "properties": { "OBJECTID": 440, "ID": "51182521720100", "NAME": "志同村委会" }, "geometry": { "type": "Point", "coordinates": [ 102.805938729000047, 29.993999491000068 ] } },
{ "type": "Feature", "properties": { "OBJECTID": 441, "ID": "51180210320000", "NAME": "高家村委会" }, "geometry": { "type": "Point", "coordinates": [ 103.030319228000053, 29.993804928000031 ] } },
{ "type": "Feature", "properties": { "OBJECTID": 442, "ID": "51182520420200", "NAME": "鱼泉村委会" }, "geometry": { "type": "Point", "coordinates": [ 102.720260603000042, 29.992481240000075 ] } },
{ "type": "Feature", "properties": { "OBJECTID": 443, "ID": "51180211020100", "NAME": "下坝村委会" }, "geometry": { "type": "Point", "coordinates": [ 102.954673791000062, 29.992179866000072 ] } },
{ "type": "Feature", "properties": { "OBJECTID": 444, "ID": "51180210320500", "NAME": "寨坪村委会" }, "geometry": { "type": "Point", "coordinates": [ 103.054298416000051, 29.991861365000034 ] } },
{ "type": "Feature", "properties": { "OBJECTID": 445, "ID": "51180210020500", "NAME": "新一村委会" }, "geometry": { "type": "Point", "coordinates": [ 103.007598853000047, 29.991577178000057 ] } },
{ "type": "Feature", "properties": { "OBJECTID": 446, "ID": "51180210420300", "NAME": "殷家村委会" }, "geometry": { "type": "Point", "coordinates": [ 102.930969229000084, 29.991327303000048 ] } },
{ "type": "Feature", "properties": { "OBJECTID": 447, "ID": "51180200121000", "NAME": "水中村委会" }, "geometry": { "type": "Point", "coordinates": [ 103.019851667000069, 29.990865678000034 ] } },
{ "type": "Feature", "properties": { "OBJECTID": 448, "ID": "51182521020900", "NAME": "群山村委会" }, "geometry": { "type": "Point", "coordinates": [ 102.841155978000074, 29.990650178000067 ] } },
{ "type": "Feature", "properties": { "OBJECTID": 449, "ID": "51180200220600", "NAME": "龙岗村委会" }, "geometry": { "type": "Point", "coordinates": [ 102.97550966600005, 29.990489991000061 ] } },
{ "type": "Feature", "properties": { "OBJECTID": 450, "ID": "51180210120500", "NAME": "洪川村委会" }, "geometry": { "type": "Point", "coordinates": [ 103.142555229000038, 29.990203865000069 ] } },
{ "type": "Feature", "properties": { "OBJECTID": 451, "ID": "51182521920200", "NAME": "和平村委会" }, "geometry": { "type": "Point", "coordinates": [ 102.817497228000036, 29.989002241000037 ] } },
{ "type": "Feature", "properties": { "OBJECTID": 452, "ID": "51180320620400", "NAME": "青龙村村委会" }, "geometry": { "type": "Point", "coordinates": [ 103.197799666000037, 29.988746615000025 ] } },
{ "type": "Feature", "properties": { "OBJECTID": 453, "ID": "51180320620300", "NAME": "金龙村村委会" }, "geometry": { "type": "Point", "coordinates": [ 103.183395417000042, 29.987419115000023 ] } },
{ "type": "Feature", "properties": { "OBJECTID": 454, "ID": "51182521720000", "NAME": "新立村委会" }, "geometry": { "type": "Point", "coordinates": [ 102.808944729000075, 29.986118303000069 ] } },
{ "type": "Feature", "properties": { "OBJECTID": 455, "ID": "51180211000600", "NAME": "上坝路社区居委会" }, "geometry": { "type": "Point", "coordinates": [ 102.940315228000088, 29.985919928000044 ] } },
{ "type": "Feature", "properties": { "OBJECTID": 456, "ID": "51180200121000", "NAME": "城后村委会" }, "geometry": { "type": "Point", "coordinates": [ 102.991203291000033, 29.985567115000038 ] } },
{ "type": "Feature", "properties": { "OBJECTID": 457, "ID": "51182521020100", "NAME": "爱国村委会" }, "geometry": { "type": "Point", "coordinates": [ 102.87360379100005, 29.983955366000032 ] } },
{ "type": "Feature", "properties": { "OBJECTID": 458, "ID": "51182521720300", "NAME": "前阳村委会" }, "geometry": { "type": "Point", "coordinates": [ 102.825500479000084, 29.982854865000036 ] } },
{ "type": "Feature", "properties": { "OBJECTID": 459, "ID": "51180210220600", "NAME": "穆坪村委会" }, "geometry": { "type": "Point", "coordinates": [ 103.148521416000051, 29.98251536500004 ] } },
{ "type": "Feature", "properties": { "OBJECTID": 460, "ID": "51182521320300", "NAME": "王家营村委会" }, "geometry": { "type": "Point", "coordinates": [ 102.863166791000083, 29.982475303000058 ] } },
{ "type": "Feature", "properties": { "OBJECTID": 461, "ID": "51182521720500", "NAME": "结里村委会" }, "geometry": { "type": "Point", "coordinates": [ 102.833961479000038, 29.982254053000077 ] } },
{ "type": "Feature", "properties": { "OBJECTID": 462, "ID": "51182520720300", "NAME": "水獭坪村委会" }, "geometry": { "type": "Point", "coordinates": [ 102.446815478000076, 29.981632241000057 ] } },
{ "type": "Feature", "properties": { "OBJECTID": 463, "ID": "51180210420900", "NAME": "青元村委会" }, "geometry": { "type": "Point", "coordinates": [ 102.977806104000081, 29.981468178000057 ] } },
{ "type": "Feature", "properties": { "OBJECTID": 464, "ID": "51180200120900", "NAME": "南坝村委会" }, "geometry": { "type": "Point", "coordinates": [ 103.018592854000076, 29.981420491000051 ] } },
{ "type": "Feature", "properties": { "OBJECTID": 465, "ID": "51182521720800", "NAME": "民政村委会" }, "geometry": { "type": "Point", "coordinates": [ 102.803367604000073, 29.981302241000037 ] } },
{ "type": "Feature", "properties": { "OBJECTID": 466, "ID": "51180210220700", "NAME": "双合村委会" }, "geometry": { "type": "Point", "coordinates": [ 103.175804166000034, 29.980997115000037 ] } },
{ "type": "Feature", "properties": { "OBJECTID": 467, "ID": "51180210420100", "NAME": "坎坡村委会" }, "geometry": { "type": "Point", "coordinates": [ 102.956329353000058, 29.980174990000023 ] } },
{ "type": "Feature", "properties": { "OBJECTID": 468, "ID": "51180210220900", "NAME": "张山村委会" }, "geometry": { "type": "Point", "coordinates": [ 103.181243916000085, 29.979585678000035 ] } },
{ "type": "Feature", "properties": { "OBJECTID": 469, "ID": "51180200121100", "NAME": "顺江村委会" }, "geometry": { "type": "Point", "coordinates": [ 103.011009228000034, 29.979265240000075 ] } },
{ "type": "Feature", "properties": { "OBJECTID": 470, "ID": "51180210400100", "NAME": "青江路社区居委会" }, "geometry": { "type": "Point", "coordinates": [ 102.99578860400004, 29.977561928000057 ] } },
{ "type": "Feature", "properties": { "OBJECTID": 471, "ID": "51182520420000", "NAME": "干河村委会" }, "geometry": { "type": "Point", "coordinates": [ 102.706932041000073, 29.976915366000071 ] } },
{ "type": "Feature", "properties": { "OBJECTID": 472, "ID": "51180210420200", "NAME": "彭家村委会" }, "geometry": { "type": "Point", "coordinates": [ 102.940460229000053, 29.976720803000035 ] } },
{ "type": "Feature", "properties": { "OBJECTID": 473, "ID": "51180210320700", "NAME": "龙溪村委会" }, "geometry": { "type": "Point", "coordinates": [ 103.075126666000074, 29.976322178000032 ] } },
{ "type": "Feature", "properties": { "OBJECTID": 474, "ID": "51180220120800", "NAME": "澄清村委会" }, "geometry": { "type": "Point", "coordinates": [ 103.016113291000067, 29.97621724000004 ] } },
{ "type": "Feature", "properties": { "OBJECTID": 475, "ID": "51180210120700", "NAME": "栗子村委会" }, "geometry": { "type": "Point", "coordinates": [ 103.103446979000068, 29.975343678000058 ] } },
{ "type": "Feature", "properties": { "OBJECTID": 476, "ID": "51182521720600", "NAME": "后阳村委会" }, "geometry": { "type": "Point", "coordinates": [ 102.793243416000053, 29.974906928000053 ] } },
{ "type": "Feature", "properties": { "OBJECTID": 477, "ID": "51180210120800", "NAME": "均田村委会" }, "geometry": { "type": "Point", "coordinates": [ 103.113937354000086, 29.974781053000072 ] } },
{ "type": "Feature", "properties": { "OBJECTID": 478, "ID": "51182521020200", "NAME": "幸福村委会" }, "geometry": { "type": "Point", "coordinates": [ 102.873428353000065, 29.974401491000037 ] } },
{ "type": "Feature", "properties": { "OBJECTID": 479, "ID": "51180210220500", "NAME": "徐坪村委会" }, "geometry": { "type": "Point", "coordinates": [ 103.162406916000066, 29.973779678000028 ] } },
{ "type": "Feature", "properties": { "OBJECTID": 480, "ID": "51180210220400", "NAME": "魏家村委会" }, "geometry": { "type": "Point", "coordinates": [ 103.145248417000062, 29.973691928000051 ] } },
{ "type": "Feature", "properties": { "OBJECTID": 481, "ID": "51180210420000", "NAME": "对岩村委会" }, "geometry": { "type": "Point", "coordinates": [ 102.94667054100006, 29.971355428000038 ] } },
{ "type": "Feature", "properties": { "OBJECTID": 482, "ID": "51182521720200", "NAME": "董家村委会" }, "geometry": { "type": "Point", "coordinates": [ 102.844123854000088, 29.96897124000003 ] } },
{ "type": "Feature", "properties": { "OBJECTID": 483, "ID": "51182521720300", "NAME": "山后村委会" }, "geometry": { "type": "Point", "coordinates": [ 102.856040979000056, 29.968477240000027 ] } },
{ "type": "Feature", "properties": { "OBJECTID": 484, "ID": "51182521720400", "NAME": "杨柳村委会" }, "geometry": { "type": "Point", "coordinates": [ 102.818931604000056, 29.968126303000076 ] } },
{ "type": "Feature", "properties": { "OBJECTID": 485, "ID": "51180220320100", "NAME": "石龙村委会" }, "geometry": { "type": "Point", "coordinates": [ 102.931961041000079, 29.966312428000037 ] } },
{ "type": "Feature", "properties": { "OBJECTID": 486, "ID": "51180210120300", "NAME": "幸福村委会" }, "geometry": { "type": "Point", "coordinates": [ 103.120307916000058, 29.965732553000066 ] } },
{ "type": "Feature", "properties": { "OBJECTID": 487, "ID": "51182521720000", "NAME": "新场村委会" }, "geometry": { "type": "Point", "coordinates": [ 102.832885728000065, 29.964715928000032 ] } },
{ "type": "Feature", "properties": { "OBJECTID": 488, "ID": "51180220120700", "NAME": "龙洞村委会" }, "geometry": { "type": "Point", "coordinates": [ 103.013481166000076, 29.963811866000071 ] } },
{ "type": "Feature", "properties": { "OBJECTID": 489, "ID": "51180210420400", "NAME": "葫芦村委会" }, "geometry": { "type": "Point", "coordinates": [ 102.951889041000072, 29.963556303000075 ] } },
{ "type": "Feature", "properties": { "OBJECTID": 490, "ID": "51180210120900", "NAME": "水津村委会" }, "geometry": { "type": "Point", "coordinates": [ 103.089706417000059, 29.963214865000054 ] } },
{ "type": "Feature", "properties": { "OBJECTID": 491, "ID": "51172512120000", "NAME": "柳垭村民委员会" }, "geometry": { "type": "Point", "coordinates": [ 102.98228454100007, 29.961748115000034 ] } },
{ "type": "Feature", "properties": { "OBJECTID": 492, "ID": "51182521720600", "NAME": "玉阳村委会" }, "geometry": { "type": "Point", "coordinates": [ 102.829650854000079, 29.961212178000039 ] } },
{ "type": "Feature", "properties": { "OBJECTID": 493, "ID": "51180210220300", "NAME": "塘坝村委会" }, "geometry": { "type": "Point", "coordinates": [ 103.143836978000081, 29.960998553000024 ] } },
{ "type": "Feature", "properties": { "OBJECTID": 494, "ID": "51182521920300", "NAME": "马子村委会" }, "geometry": { "type": "Point", "coordinates": [ 102.822517416000039, 29.960369115000049 ] } },
{ "type": "Feature", "properties": { "OBJECTID": 495, "ID": "51180210220800", "NAME": "横岩村委会" }, "geometry": { "type": "Point", "coordinates": [ 103.18345641600007, 29.959901803000037 ] } },
{ "type": "Feature", "properties": { "OBJECTID": 496, "ID": "51182521720100", "NAME": "韩家村委会" }, "geometry": { "type": "Point", "coordinates": [ 102.838859541000033, 29.95896530300007 ] } },
{ "type": "Feature", "properties": { "OBJECTID": 497, "ID": "51182520420100", "NAME": "青元村委会" }, "geometry": { "type": "Point", "coordinates": [ 102.679496791000076, 29.958915741000055 ] } },
{ "type": "Feature", "properties": { "OBJECTID": 498, "ID": "51180210100100", "NAME": "草坝居委会" }, "geometry": { "type": "Point", "coordinates": [ 103.104652416000079, 29.958843240000078 ] } },
{ "type": "Feature", "properties": { "OBJECTID": 499, "ID": "51180220120000", "NAME": "坪石村委会" }, "geometry": { "type": "Point", "coordinates": [ 103.000015228000052, 29.956937803000073 ] } },
{ "type": "Feature", "properties": { "OBJECTID": 500, "ID": "51180210120100", "NAME": "新时村委会" }, "geometry": { "type": "Point", "coordinates": [ 103.116241478000063, 29.956109990000073 ] } },
{ "type": "Feature", "properties": { "OBJECTID": 501, "ID": "51180220320200", "NAME": "白云村委会" }, "geometry": { "type": "Point", "coordinates": [ 102.923126229000047, 29.955484366000064 ] } },
{ "type": "Feature", "properties": { "OBJECTID": 502, "ID": "51182521920200", "NAME": "大深村委会" }, "geometry": { "type": "Point", "coordinates": [ 102.799980166000068, 29.954059616000052 ] } },
{ "type": "Feature", "properties": { "OBJECTID": 503, "ID": "51180210220200", "NAME": "柏树村委会" }, "geometry": { "type": "Point", "coordinates": [ 103.144523603000039, 29.954002366000054 ] } },
{ "type": "Feature", "properties": { "OBJECTID": 504, "ID": "51182520720200", "NAME": "长河坝村委会" }, "geometry": { "type": "Point", "coordinates": [ 102.376281728000038, 29.953798303000042 ] } },
{ "type": "Feature", "properties": { "OBJECTID": 505, "ID": "51180220120600", "NAME": "余家村委会" }, "geometry": { "type": "Point", "coordinates": [ 103.00523379100008, 29.951936740000065 ] } },
{ "type": "Feature", "properties": { "OBJECTID": 506, "ID": "51180210120200", "NAME": "河岗村委会" }, "geometry": { "type": "Point", "coordinates": [ 103.108146666000039, 29.951814678000062 ] } },
{ "type": "Feature", "properties": { "OBJECTID": 507, "ID": "51180210320500", "NAME": "周山村委会" }, "geometry": { "type": "Point", "coordinates": [ 103.080612166000037, 29.951210053000068 ] } },
{ "type": "Feature", "properties": { "OBJECTID": 508, "ID": "51180210220200", "NAME": "蟠龙村委会" }, "geometry": { "type": "Point", "coordinates": [ 103.184356666000042, 29.951114678000067 ] } },
{ "type": "Feature", "properties": { "OBJECTID": 509, "ID": "51180220120200", "NAME": "昝村村委会" }, "geometry": { "type": "Point", "coordinates": [ 102.989707916000043, 29.950149553000074 ] } },
{ "type": "Feature", "properties": { "OBJECTID": 510, "ID": "51180220320000", "NAME": "枫木村委会" }, "geometry": { "type": "Point", "coordinates": [ 102.937812791000056, 29.950056053000026 ] } },
{ "type": "Feature", "properties": { "OBJECTID": 511, "ID": "51180210320200", "NAME": "简坝村委会" }, "geometry": { "type": "Point", "coordinates": [ 103.098800666000045, 29.949766178000061 ] } },
{ "type": "Feature", "properties": { "OBJECTID": 512, "ID": "51180210120400", "NAME": "林口村委会" }, "geometry": { "type": "Point", "coordinates": [ 103.133537291000039, 29.949438116000067 ] } },
{ "type": "Feature", "properties": { "OBJECTID": 513, "ID": "51180210320300", "NAME": "万坪村委会" }, "geometry": { "type": "Point", "coordinates": [ 103.089324979000082, 29.949203491000048 ] } },
{ "type": "Feature", "properties": { "OBJECTID": 514, "ID": "51180210420500", "NAME": "陇阳村委会" }, "geometry": { "type": "Point", "coordinates": [ 102.971755978000033, 29.946424490000027 ] } },
{ "type": "Feature", "properties": { "OBJECTID": 515, "ID": "51180210220100", "NAME": "太坪村委会" }, "geometry": { "type": "Point", "coordinates": [ 103.157646166000063, 29.946119303000046 ] } },
{ "type": "Feature", "properties": { "OBJECTID": 516, "ID": "51182521720400", "NAME": "丁村村委会" }, "geometry": { "type": "Point", "coordinates": [ 102.830131541000071, 29.945207616000062 ] } },
{ "type": "Feature", "properties": { "OBJECTID": 517, "ID": "51182520720100", "NAME": "两路口村委会" }, "geometry": { "type": "Point", "coordinates": [ 102.386100790000057, 29.943588241000043 ] } },
{ "type": "Feature", "properties": { "OBJECTID": 518, "ID": "51180220120300", "NAME": "狮子村委会" }, "geometry": { "type": "Point", "coordinates": [ 103.000564604000033, 29.94226455300003 ] } },
{ "type": "Feature", "properties": { "OBJECTID": 519, "ID": "51180220320300", "NAME": "李家村委会" }, "geometry": { "type": "Point", "coordinates": [ 102.906555166000032, 29.942123428000059 ] } },
{ "type": "Feature", "properties": { "OBJECTID": 520, "ID": "51180210120500", "NAME": "石坪村委会" },